OPIS Truckstop ID,Truckstop_Name,Address,City,State,Rack_ID,Average_Retail_Price,Highest_Price,city_lat,city_lon,row_index,Geocoded_Lat,Geocoded_Lon,Matched_Address,Query_Used,Attempt,Geocode_Status,Done
61477,CHOCTAW NATION GRANT #633,US-271,Grant,OK,253,2.999,2.999,33.9387,-95.5156,1690,35.49581,-97.27319,,"CHOCTAW NATION GRANT #633, US-271, Grant, OK",1,OK,done
61483,CM SILVER DOLLAR,"I-220, EXIT 7",Shreveport,LA,745,3.299,3.299,32.4653,-93.7955,1691,32.50755,-93.81504,,"CM SILVER DOLLAR, I-220, EXIT 7, Shreveport, LA",1,OK,done
61492,SPRINGER TRAVEL PLAZA,I-35 EXIT 40,Springer,OK,253,2.91566666,2.91566666,34.291,-97.1255,1692,34.29978,-97.15933,,"SPRINGER TRAVEL PLAZA, I-35 EXIT 40, Springer, OK",1,OK,done
61508,7-ELEVEN #40275,"I-70 & I-76 NB, MM 147",Bedford,PA,14,4.199,4.199,nan,nan,1693,,,"ERROR: 403 Denied: {""message"":""Missing Authentication Token""}",,99,ERROR,not done
61509,7-ELEVEN #40275,"I-70/I-76 SB, MM 147",Bedford,PA,14,4.199,4.199,nan,nan,1694,,,"ERROR: 403 Denied: {""message"":""Missing Authentication Token""}",,99,ERROR,not done
61511,MIDWAY FUEL AND TRUCK WASH,"I-78/US-22, EXIT 16",Bethel,PA,208,3.364,3.364,nan,nan,1695,40.47957,-76.24268,,"MIDWAY FUEL AND TRUCK WASH, I-78/US-22, EXIT 16, Bethel, PA",1,OK,done
61515,Carlisle Fuel Stop,"I-81, EXIT 52",Carlisle,PA,70,3.359,3.359,40.2,-77.2034,1696,40.23383,-77.12208,,"Carlisle Fuel Stop, I-81, EXIT 52, Carlisle, PA",1,OK,done
61540,S&P Oil,US-13,Levittown,PA,160,3.81566666,3.81566666,40.1533,-74.8531,1697,40.17552,-74.86017,,"S&P Oil, US-13, Levittown, PA",1,OK,done
61559,7-ELEVEN #40273,34 MILE WEST OF EXIT 11/146,Somerset,PA,168,4.20733333,4.20733333,40.0049,-79.0778,1698,,,"ERROR: 403 Denied: {""message"":""Missing Authentication Token""}",,99,ERROR,not done
61560,7-ELEVEN #40272,"I-70 & 76, EXIT 10",Somerset,PA,168,4.20733333,4.20733333,40.0049,-79.0778,1699,40.71843,-75.26875,,"7-ELEVEN #40272, I-70, Somerset, PA",2,OK,done
61567,7-ELEVEN #35774,"I-76, EXIT 5/48",Verona,PA,165,4.20733333,4.20733333,40.505,-79.8419,1700,,,"ERROR: 403 Denied: {""message"":""Missing Authentication Token""}",,99,ERROR,not done
61569,KWIK FILL #295,US-6 BUS,Warren,PA,240,4.699,4.699,41.8434,-79.1444,1701,41.84289,-79.14257,,"KWIK FILL #295, US-6 BUS, Warren, PA",1,OK,done
61570,7-ELEVEN #40276,"I-76, EXIT 12/161 & SR-655",Waterfall,PA,14,4.199,4.199,nan,nan,1702,,,"ERROR: 403 Denied: {""message"":""Missing Authentication Token""}",,99,ERROR,not done
61571,7-ELEVEN #40280,MILE MARKER 55 NE EXT PENN TPKE,Allentown,PA,90,3.589,3.589,40.5961,-75.4756,1703,40.60274,-75.46634,,"7-ELEVEN #40280, MILE MARKER 55 NE EXT PENN TPKE, Allentown, PA",1,OK,done
61594,SPINX #138 (DISCOUNT AVAILABLE),"I-85, EXIT 44",Greenville,SC,30,3.04233333,3.04233333,34.8354,-82.3646,1704,34.816,-82.32777,,"SPINX #138 (DISCOUNT AVAILABLE), I-85, EXIT 44, Greenville, SC",1,OK,done
61595,CORNER MART 3338,"I-85, EXIT 44",Greenville,SC,30,2.907,2.907,34.8354,-82.3646,1705,34.79811,-82.38218,,"CORNER MART 3338, I-85, EXIT 44, Greenville, SC",1,OK,done
61596,HOT SPOT #2009,US-25/US-178 & SR-225,Greenwood,SC,30,2.939,2.939,34.1947,-82.1542,1706,34.22671,-82.1967,,"HOT SPOT #2009, US-25/US-178 & SR-225, Greenwood, SC",1,OK,done
61597,SPINX #121,"I-85, EXIT 56",Greer,SC,30,3.16566666,3.16566666,34.933,-82.2313,1707,34.86932,-82.23102,,"SPINX #121, I-85, EXIT 56, Greer, SC",1,OK,done
61598,Shell,SR-41,Hemingway,SC,245,3.199,3.199,33.7534,-79.4462,1708,33.76268,-79.44625,,"Shell, SR-41, Hemingway, SC",1,OK,done
61599,HOT SPOT #2013,"I-26, EXIT 10",Inman,SC,210,3.149,3.149,35.0463,-82.0897,1709,35.08186,-82.05955,,"HOT SPOT #2013, I-26, EXIT 10, Inman, SC",1,OK,done
61605,HOT SPOT #2028,US-76/US-301,Marion,SC,63,2.999,2.999,34.1787,-79.3956,1710,34.1717,-79.40428,,"HOT SPOT #2028, US-76/US-301, Marion, SC",1,OK,done
61616,PILOT #4578,"I-77, EXIT 48 & SC-200",Winnsboro,SC,135,3.409,3.409,34.3718,-81.0907,1711,34.39287,-81.0895,,"PILOT #4578, I-77, EXIT 48 & SC-200, Winnsboro, SC",1,OK,done
61621,CUBBYS #401,"I-90 , EXIT 332 & SR-37",Mitchell,SD,530,3.149,3.149,43.7294,-98.0337,1712,43.70822,-98.04722,,"CUBBYS #401, I-90 , EXIT 332 & SR-37, Mitchell, SD",1,OK,done
61625,PRARIE STOP,US-212 & SR-20,Watertown,SD,566,3.279,3.279,44.9094,-97.1532,1713,44.94966,-97.18516,,"PRARIE STOP, US-212 & SR-20, Watertown, SD",1,OK,done
61633,ECO TRAVEL PLAZA,"I-40, EXIT 320 & SR-298",Crossville,TN,405,3.02566666,3.02566666,35.9526,-85.0295,1714,35.95705,-85.02589,,"ECO TRAVEL PLAZA, I-40, EXIT 320 & SR-298, Crossville, TN",1,OK,done
61642,PILOT TRAVEL CENTERS #252,"I-35, EXIT 26",Kearney,MO,400,3.699,3.699,39.355,-94.3599,1715,39.36838,-94.37421,,"PILOT TRAVEL CENTERS #252, I-35, EXIT 26, Kearney, MO",1,OK,done
61646,SHELL,"I-40, EXIT 35 & SR-59",Mason,TN,435,3.549,3.549,35.4128,-89.5412,1716,35.41253,-89.53514,,"SHELL, I-40, EXIT 35 & SR-59, Mason, TN",1,OK,done
61651,LEES FOOD MART #123,"I-81, EXIT 23 AT MILE 23",Bulls Gap,TN,405,3.259,3.259,36.2615,-83.0788,1717,36.22547,-83.04561,,"LEES FOOD MART #123, I-81, EXIT 23 AT MILE 23, Bulls Gap, TN",1,OK,done
61654,MAJOR MARKETS #276,US-51/SR-3,Ripley,TN,435,3.799,3.799,35.7449,-89.5358,1718,35.75121,-89.55138,,"MAJOR MARKETS #276, US-51/SR-3, Ripley, TN",1,OK,done
61656,PHILLIPS 66,US-51,Union City,TN,460,3.38233333,3.38233333,36.4267,-89.0474,1719,36.40778,-89.08381,,"PHILLIPS 66, US-51, Union City, TN",1,OK,done
61660,MARATHON,"I-40, EXIT 108",Wildersville,TN,435,3.099,3.099,35.7766,-88.3561,1720,35.79062,-88.39104,,"MARATHON, I-40, EXIT 108, Wildersville, TN",1,OK,done
61684,WOODYS FOOD MART,"I-45 & SR-7, EXIT 164",Centerville,TX,670,2.84566666,2.84566666,31.2583,-95.9794,1721,31.25785,-95.97941,,"WOODYS FOOD MART, I-45 & SR-7, EXIT 164, Centerville, TX",1,OK,done
61730,STRIPES 7FLEET #42430,"I-20, EXIT 131",Midland,TX,612,3.569,3.569,32.0243,-102.1147,1722,31.97395,-102.06941,,"STRIPES 7FLEET #42430, I-20, EXIT 131, Midland, TX",1,OK,done
61747,TEX-BEST #504,"I-35, EXIT 141",Von Ormy,TX,740,3.15733333,3.15733333,29.2803,-98.6556,1723,29.29226,-98.63932,,"TEX-BEST #504, I-35, EXIT 141, Von Ormy, TX",1,OK,done
61751,ALLSUPS CONVENIENCE STORE #2264,SR-214,Seminole,TX,710,3.094,3.094,32.7207,-102.6501,1724,32.72598,-102.65689,,"ALLSUPS CONVENIENCE STORE #2264, SR-214, Seminole, TX",1,OK,done
61761,ALLSUPS CONVENIENCE STORE #2304,"I-40, EXIT 36 & US-385",Vega,TX,585,2.999,2.999,35.2453,-102.4294,1725,,,"ERROR: 403 Denied: {""message"":""Missing Authentication Token""}",,99,ERROR,not done
61763,ALLSUPS CONVENIENCE STORE #2283,"I-20, EXIT 73",Wickett,TX,710,2.899,2.899,31.5673,-103.006,1726,,,"ERROR: 403 Denied: {""message"":""Missing Authentication Token""}",,99,ERROR,not done
61787,DUCK THRU FOOD STORE #5,US-258,Franklin,VA,180,3.499,3.499,36.6831,-76.9386,1727,37.10243,-79.64587,,"DUCK THRU FOOD STORE #5, US-258, Franklin, VA",1,OK,done
61796,EXXON,US-220,Martinsville,VA,185,3.375,3.375,36.6826,-79.8636,1728,36.69303,-79.84984,,"EXXON, US-220, Martinsville, VA",1,OK,done
61799,CIRCLE K #2723712,"I-77, EXIT 52 & US-52/SR-42",Bland,VA,185,3.37566666,3.37566666,37.1,-81.1161,1729,37.10364,-81.11596,,"CIRCLE K #2723712, I-77, EXIT 52 & US-52/SR-42, Bland, VA",1,OK,done
61804,CARTERS ONE STOP,"I-95 & SR-301, EXIT 31 & SR-40",Stony Creek,VA,180,2.959,2.959,36.948,-77.4001,1730,36.93942,-77.3943,,"CARTERS ONE STOP, I-95 & SR-301, EXIT 31 & SR-40, Stony Creek, VA",1,OK,done
61806,LANKFORD TRUCK PLAZA,US-13 & CR-646,Townsend,VA,130,3.399,3.399,nan,nan,1731,37.18562,-75.95813,,"LANKFORD TRUCK PLAZA, US-13 & CR-646, Townsend, VA",1,OK,done
61819,CHEVRON,"I-5, EXIT 36",Longview,WA,935,4.499,4.499,46.1461,-122.963,1732,46.14617,-122.93303,,"CHEVRON, I-5, EXIT 36, Longview, WA",1,OK,done
61830,APPLETON TRAVEL PLAZA,SR-96,Appleton,WI,444,3.40566666,3.40566666,44.278,-88.3892,1733,44.27294,-88.40727,,"APPLETON TRAVEL PLAZA, SR-96, Appleton, WI",1,OK,done
61832,BARRON FARMERS UNION,"US-8, EXIT 53",Barron,WI,545,3.639,3.639,45.4015,-91.8476,1734,45.40305,-91.85099,,"BARRON FARMERS UNION, US-8, EXIT 53, Barron, WI",1,OK,done
61835,BRISTOL BP,"I-94, EXIT 345 & US-45",Bristol,WI,444,3.719,3.719,42.5377,-88.0151,1735,51.53381,-2.49728,,"BRISTOL BP, I-94 EXIT 345, Bristol, WI",2,OK,done
61843,KWIK TRIP #332,SR-33,Horicon,WI,444,3.21566666,3.21566666,43.4454,-88.6403,1736,43.44814,-88.63661,,"KWIK TRIP #332, SR-33, Horicon, WI",1,OK,done
61849,KWIK TRIP #306,"I-94, EXIT 259 & SR-89",Lake Mills,WI,420,3.43233333,3.43233333,43.0775,-88.9055,1737,43.07718,-88.91362,,"KWIK TRIP #306, I-94, EXIT 259 & SR-89, Lake Mills, WI",1,OK,done
61862,KWIK TRIP #781,SR-21,Redgranite,WI,582,3.35233333,3.35233333,44.0513,-89.1059,1738,44.04454,-89.11004,,"KWIK TRIP #781, SR-21, Redgranite, WI",1,OK,done
61867,KWIK TRIP #318,SR-27 & SR-16/SR-71,Sparta,WI,515,3.34233333,3.34233333,43.9377,-90.8131,1739,43.93928,-90.8148,,"KWIK TRIP #318, SR-27 & SR-16/SR-71, Sparta, WI",1,OK,done
61877,CASEYS #3715,SR-59,Whitewater,WI,420,3.299,3.299,42.8372,-88.7341,1740,42.83413,-88.75737,,"CASEYS #3715, SR-59, Whitewater, WI",1,OK,done
61879,KWIK TRIP #347,SR-13,Wisconsin Rapids,WI,395,3.31233333,3.31233333,44.3927,-89.8265,1741,44.39197,-89.83611,,"KWIK TRIP #347, SR-13, Wisconsin Rapids, WI",1,OK,done
61880,KWIK TRIP #310,SR-13/SR-73,Wisconsin Rapids,WI,395,3.26233333,3.26233333,44.3927,-89.8265,1742,44.39235,-89.83638,,"KWIK TRIP #310, SR-13/SR-73, Wisconsin Rapids, WI",1,OK,done
61908,CRANBROOK HUSKY,HWY 3/95,Cranbrook,BC,50,4.509059359999999,4.51093964,nan,nan,1743,49.51352,-115.76736,,"CRANBROOK HUSKY, HWY 3/95, Cranbrook, BC",1,OK,done
61968,FLYING J TRAVEL PLAZA #701,"I-35, EXIT 33",Ardmore,OK,253,3.659,3.659,34.1949,-97.1256,1744,34.20084,-97.16737,,"FLYING J TRAVEL PLAZA #701, I-35, EXIT 33, Ardmore, OK",1,OK,done
61978,PETRO-CANADA,HWY 247,Etobicoke,ON,720,3.60643792,3.62547711,nan,nan,1745,43.63076,-79.55086,,"PETRO-CANADA, HWY 247, Etobicoke, ON",1,OK,done
61983,PETRO-CANADA,HWY 35,Orono,ON,720,3.59147696,3.59147696,nan,nan,1746,43.9357,-78.59957,,"PETRO-CANADA, HWY 35, Orono, ON",1,OK,done
61996,PETRO-CANADA,"HWY-402, EXIT 9 & CR-22",Sarnia,ON,620,3.318433788333333,3.34071441,nan,nan,1747,42.99018,-82.31706,,"PETRO-CANADA, HWY-402, EXIT 9 & CR-22, Sarnia, ON",1,OK,done
61998,PETRO-CANADA,HWY 417,Gloucester,ON,400,3.773682186666667,3.82084539,nan,nan,1748,45.41493,-75.6118,,"PETRO-CANADA, HWY 417, Gloucester, ON",1,OK,done
62008,LOVES TRAVEL STOP #366,"I-81, EXIT 90",Jonestown,PA,70,3.85733333,3.85733333,40.413,-76.4806,1749,40.44999,-76.51491,,"LOVES TRAVEL STOP #366, I-81, EXIT 90, Jonestown, PA",1,OK,done
62016,PETRO-CANADA,"HWY-400, EXIT 29 & HWY-407, EXIT 67",Concord,ON,720,3.415996091666667,3.45750874,nan,nan,1750,43.78368,-79.53399,,"PETRO-CANADA, HWY-400, EXIT 29 & HWY-407, EXIT 67, Concord, ON",1,OK,done
62075,FLYING J TRAVEL PLAZA #657,US-283/US-50/US-56 & US-400,Dodge City,KS,570,3.799,3.799,37.7611,-100.0182,1751,37.72185,-100.01468,,"FLYING J TRAVEL PLAZA #657, US-283/US-50/US-56 & US-400, Dodge City, KS",1,OK,done
62097,FLASH MARKET #17046,US-65/SR-9,Clinton,AR,695,3.239,3.239,35.5798,-92.4543,1752,35.5281,-92.4422,,"FLASH MARKET #17046, US-65/SR-9, Clinton, AR",1,OK,done
62211,STUBS GAS AND OIL,"I-76, EXIT 66",Wiggins,CO,800,3.559,3.559,40.2286,-104.0724,1753,40.24431,-104.05563,,"STUBS GAS AND OIL, I-76, EXIT 66, Wiggins, CO",1,OK,done
62238,Circle K #2726278,SR-207,Hastings,FL,75,3.569,3.569,29.7145,-81.499,1754,29.71446,-81.50323,,"Circle K #2726278, SR-207, Hastings, FL",1,OK,done
62283,Circle K #2745099,US-23 & US-341/SR-27,Hazlehurst,GA,195,3.529,3.529,31.8651,-82.5994,1755,31.86922,-82.59403,,"Circle K #2745099, US-23 & US-341/SR-27, Hazlehurst, GA",1,OK,done
62316,BP,US-20,Delaware,IA,335,3.299,3.299,42.4718,-91.3391,1756,42.47054,-91.3237,,"BP, US-20, Delaware, IA",1,OK,done
62355,MINIT MART #600630,"I-39, EXIT 14",El Paso,IL,368,3.639,3.679,40.7405,-89.0183,1757,40.73668,-89.02849,,"MINIT MART #600630, I-39, EXIT 14, El Paso, IL",1,OK,done
62370,7-ELEVEN #34712,I-90 Exit 24,Belvidere,IL,290,3.739,3.739,42.2543,-88.8649,1758,42.25676,-88.83914,,"7-ELEVEN #34712, I-90 Exit 24, Belvidere, IL",1,OK,done
62399,Rebel Plus #882,"I-80, EXIT 101",Bristol,IN,465,3.57566666,3.57566666,41.7184,-85.8228,1759,41.73472,-85.7962,,"Rebel Plus #882, I-80, EXIT 101, Bristol, IN",1,OK,done
62462,HAWESWAY TRUCKSTOP,US-60,Owensboro,KY,487,3.599,3.599,37.7575,-87.1172,1760,37.81969,-87.04228,,"HAWESWAY TRUCKSTOP, US-60, Owensboro, KY",1,OK,done
62467,SUPER QUIK #9,"I-64, EXIT 181",Ashland,KY,255,3.669,3.669,38.4592,-82.6448,1761,38.50028,-82.67704,,"SUPER QUIK #9, I-64, EXIT 181, Ashland, KY",1,OK,done
62480,CM GALLIANO,US-167,Cut Off,LA,725,3.499,3.499,29.5164,-90.3291,1762,29.4355,-90.29842,,"CM GALLIANO, US-167, Cut Off, LA",1,OK,done
62487,Fred's Food Mart,US-61,Saint Francisville,LA,600,3.799,3.799,nan,nan,1763,30.99329,-91.34769,,"Fred's Food Mart, US-61, Saint Francisville, LA",1,OK,done
62500,CASH MAGIC VINTON,"I-10, EXIT 4 & SR-109",Vinton,LA,690,3.284,3.284,30.1957,-93.5818,1764,,,"ERROR: 403 Denied: {""message"":""Missing Authentication Token""}",,99,ERROR,not done
62547,MARATHON,SR-32W,Gaylord,MI,287,3.799,3.799,45.0208,-84.6809,1765,45.02784,-84.70244,,"MARATHON, SR-32W, Gaylord, MI",1,OK,done
62550,Sunoco,"I-275, EXIT 11",New Boston,MI,325,3.419,3.439,nan,nan,1766,42.13139,-83.38154,,"Sunoco, I-275, EXIT 11, New Boston, MI",1,OK,done
62559,EXPRESS FOOD DEPOT,"I-94, EXIT 266",Smiths Creek,MI,325,3.669,3.719,nan,nan,1767,42.92872,-82.50662,,"EXPRESS FOOD DEPOT, I-94, EXIT 266, Smiths Creek, MI",1,OK,done
62560,ONE9 #23,"I-96, EXIT 67",Ionia,MI,406,3.4690000000000003,3.499,42.9773,-85.0727,1768,42.9831,-85.06419,,"ONE9 #23, I-96, EXIT 67, Ionia, MI",1,OK,done
62701,PILOT TRAVEL CENTERS #408,"I-68, EXIT 22",Grantsville,MD,14,4.259,4.259,39.6969,-79.1528,1769,39.69227,-79.10023,,"PILOT TRAVEL CENTERS #408, I-68, EXIT 22, Grantsville, MD",1,OK,done
62710,TOWN PUMP FOOD STORE #922,"I-90, EXIT 370 &SR-10",Big Timber,MT,780,3.479,3.479,45.8346,-109.9487,1770,,,"ERROR: 403 Denied: {""message"":""Missing Authentication Token""}",,99,ERROR,not done
62753,PETRO SERVE USA,US-10,West Fargo,ND,341,3.029,3.029,46.8573,-96.9057,1771,46.86653,-96.86115,,"PETRO SERVE USA, US-10, West Fargo, ND",1,OK,done
62768,PUMP & PANTRY #34,US-20 & SR-27,Gordon,NE,475,3.449,3.449,42.8064,-102.204,1772,42.79964,-102.20299,,"PUMP & PANTRY #34, US-20 & SR-27, Gordon, NE",1,OK,done
62774,MR MIKES MINI MART,SR-9,Northwood,NH,34,3.599,3.599,nan,nan,1773,43.22237,-71.24751,,"MR MIKES MINI MART, Northwood, NH",3,OK,done
62790,7-ELEVEN #40084,US-46/US-1/US-9,Palisades Park,NJ,115,3.099,3.099,40.8472,-73.9966,1774,40.84154,-74.00026,,"7-ELEVEN #40084, US-46/US-1/US-9, Palisades Park, NJ",1,OK,done
62800,A ONE TRUCK STOP,US-9,South Amboy,NJ,79,3.499,3.499,40.4852,-74.2831,1775,40.49484,-74.29834,,"A ONE TRUCK STOP, US-9, South Amboy, NJ",1,OK,done
62817,LOVES TRAVEL STOP #364,I-75 EXIT 33,Charleston,TN,285,3.589,3.589,35.2862,-84.7611,1776,35.2908,-84.8176,,"LOVES TRAVEL STOP #364, I-75 EXIT 33, Charleston, TN",1,OK,done
62824,FLYING J TRAVEL PLAZA #1005,"I-80, EXIT 48",Fernley,NV,966,3.91566666,3.91566666,39.5627,-119.1906,1777,39.61504,-119.2168,,"FLYING J TRAVEL PLAZA #1005, I-80, EXIT 48, Fernley, NV",1,OK,done
62841,SPEEDWAY #9912,"I-81, EXIT 10",Mc Graw,NY,32,4.309,4.309,nan,nan,1778,42.59055,-76.13176,,"SPEEDWAY #9912, I-81, EXIT 10, Mc Graw, NY",1,OK,done
62844,CIRCLE K #4707612,"I-81, EXIT 14",Tully,NY,220,4.049,4.299,nan,nan,1779,42.79628,-76.12336,,"CIRCLE K #4707612, I-81, EXIT 14, Tully, NY",1,OK,done
62850,GANSEVOORT MINI MART,"I-87, EXIT 17",Gansevoort,NY,12,3.769,3.779,nan,nan,1780,43.20593,-73.64328,,"GANSEVOORT MINI MART, I-87, EXIT 17, Gansevoort, NY",1,OK,done
62887,SPEEDWAY #9367,"I-275, EXIT 42",Cincinnati,OH,300,3.12566666,3.12566666,39.1413,-84.506,1781,39.05952,-84.42492,,"SPEEDWAY #9367, I-275, EXIT 42, Cincinnati, OH",1,OK,done
62911,DAVIS TRAVEL CENTER #108,"I-85, EXIT 39",Warfield,VA,180,3.099,3.099,36.896,-77.819,1782,36.94062,-77.73533,,"DAVIS TRAVEL CENTER #108, I-85, EXIT 39, Warfield, VA",1,OK,done
62918,CIRCLE K #4705567,ST 91,Twinsburg,OH,305,3.63233333,3.63233333,41.322,-81.4451,1783,41.28423,-81.44026,,"CIRCLE K #4705567, ST 91, Twinsburg, OH",1,OK,done
62991,ONVO TRAVEL PLAZA,"I-84, EXIT 17",Lake Ariel,PA,200,3.58566666,3.58566666,nan,nan,1784,41.35685,-75.37603,,"ONVO TRAVEL PLAZA, I-84, EXIT 17, Lake Ariel, PA",1,OK,done
62996,MARTIN GENERAL STORE,US-22,Alexandria,PA,14,3.539,3.539,40.5583,-78.0997,1785,40.54475,-78.09422,,"US-22, Alexandria, PA",4,OK,done
63013,TA WEST GREENWICH,"I-95, EXIT 5B",West Greenwich,RI,175,3.76566666,3.76566666,nan,nan,1786,41.65555,-71.60211,,"TA WEST GREENWICH, I-95, EXIT 5B, West Greenwich, RI",1,OK,done
63018,CIRCLE K #2723354,"I-526, EXIT 18A & US-78",Charleston,SC,42,3.299,3.299,32.8168,-79.9687,1787,32.8863,-80.01461,,"CIRCLE K #2723354, I-526, EXIT 18A & US-78, Charleston, SC",1,OK,done
63126,PWI #120,"I-10, EXIT 593",Schertz,TX,740,2.92566666,2.92566666,29.565,-98.2535,1788,29.49782,-98.19718,,"PWI #120, I-10, EXIT 593, Schertz, TX",1,OK,done
63193,Shell,US-29,Warrenton,VA,60,3.25733333,3.25733333,38.7176,-77.7976,1789,38.3248,-77.47066,,"Shell, US-29, Warrenton, VA",1,OK,done
63211,OMAK MART,US-97 & SR-215,Omak,WA,970,4.149,4.149,48.4229,-119.5159,1790,48.40576,-119.53001,,"OMAK MART, US-97 & SR-215, Omak, WA",1,OK,done
63246,Petro Stopping Center #368,"I-94, EXIT 333",Sturtevant,WI,444,3.889,3.889,42.6995,-87.9019,1791,42.72547,-87.95594,,"Petro Stopping Center #368, I-94, EXIT 333, Sturtevant, WI",1,OK,done
63313,MARION TRAVEL CENTER,I-55 EXIT 14,Marion,AR,435,3.199,3.199,35.2035,-90.2059,1792,35.21673,-90.20847,,"MARION TRAVEL CENTER, I-55 EXIT 14, Marion, AR",1,OK,done
63330,CIRCLE K #2723678,SR-53,Rome,GA,18,3.06233333,3.06233333,34.2662,-85.1863,1793,34.17673,-85.20594,,"CIRCLE K #2723678, SR-53, Rome, GA",1,OK,done
63336,ROAD RANGER #118,"I-72 & I-55, EXIT 100-A",Springfield,IL,318,3.354,3.409,39.7709,-89.654,1794,39.80218,-89.64285,,"ROAD RANGER #118, I-72 & I-55, EXIT 100-A, Springfield, IL",1,OK,done
63349,FLYING J TRAVEL PLAZA #662,"I-24, EXIT 86",Oak Grove,KY,415,3.15233333,3.15233333,36.6686,-87.4216,1795,36.6955,-87.43573,,"FLYING J TRAVEL PLAZA #662, I-24, EXIT 86, Oak Grove, KY",1,OK,done
63351,76 FUEL CENTER,"I-75, EXIT 76",Berea,KY,410,2.999,2.999,37.5904,-84.2898,1796,37.57456,-84.28359,,"76 FUEL CENTER, I-75, EXIT 76, Berea, KY",1,OK,done
63353,LOVES TRAVEL STOP #367,"I-74, EXIT 149",Le Roy,IL,280,3.504,3.589,40.3395,-88.7628,1797,40.34053,-88.76121,,"LOVES TRAVEL STOP #367, I-74, EXIT 149, Le Roy, IL",1,OK,done
63376,Circle K #2746246,US-169 & SR-41,Shakopee,MN,448,3.599,3.599,44.7745,-93.4772,1798,44.76781,-93.58108,,"Circle K #2746246, US-169 & SR-41, Shakopee, MN",1,OK,done
63379,Petro Stopping Center #460,"I-70, EXIT 28",Oak Grove,MO,400,3.21233333,3.21233333,39.0075,-94.1282,1799,39.01538,-94.13105,,"Petro Stopping Center #460, I-70, EXIT 28, Oak Grove, MO",1,OK,done
63388,CIRCLE K #2723471,"I-95, EXIT 121",Wilson,NC,205,3.199,3.199,35.7311,-77.9284,1800,35.76336,-78.00431,,"CIRCLE K #2723471, I-95, EXIT 121, Wilson, NC",1,OK,done
63391,FLYING J TRAVEL PLAZA #687,"I-80, EXIT 179",North Platte,NE,475,3.449,3.449,41.1263,-100.7641,1801,41.10096,-100.7273,,"FLYING J TRAVEL PLAZA #687, I-80, EXIT 179, North Platte, NE",1,OK,done
63409,FLYING J TRAVEL PLAZA #693,"I-90, EXIT 48A; PEMBROKE, NY",Corfu,NY,38,3.889,3.889,42.9611,-78.4028,1802,42.96049,-78.40496,,"FLYING J TRAVEL PLAZA #693, I-90, EXIT 48A; PEMBROKE, NY, Corfu, NY",1,OK,done
63428,FLYING J TRAVEL PLAZA #702,"I-40, EXIT 264B",Checotah,OK,560,3.699,3.699,35.482,-95.5224,1803,35.46997,-95.52243,,"FLYING J TRAVEL PLAZA #702, Checotah, OK",3,OK,done
63442,Flying J Travel Plaza #720,"I-40, EXIT 182",Fairview,TN,460,3.18566666,3.18566666,35.9815,-87.1291,1804,36.02659,-87.17241,,"Flying J Travel Plaza #720, I-40, EXIT 182, Fairview, TN",1,OK,done
63455,FLYING J TRAVEL PLAZA #752,"I-81, EXIT 323",Clear Brook,VA,60,3.659,3.659,nan,nan,1805,39.28979,-78.08788,,"FLYING J TRAVEL PLAZA #752, I-81, EXIT 323, Clear Brook, VA",1,OK,done
63456,SHELL,"I-85, EXIT 61",Petersburg,VA,180,3.20066666,3.20066666,37.2043,-77.3913,1806,37.18213,-77.49249,,"SHELL, I-85, EXIT 61, Petersburg, VA",1,OK,done
63495,DECAUTER SHELL TRUCK STOP,"I-35, EXIT 369",Decatur,TX,637,2.91566666,2.91566666,33.2263,-97.5875,1807,33.24039,-97.57034,,"DECAUTER SHELL TRUCK STOP, I-35, EXIT 369, Decatur, TX",1,OK,done
63498,PILOT #6955,I-40/I-85 EXIT 150,Haw River,NC,65,3.959,3.959,36.0926,-79.3615,1808,36.06865,-79.35746,,"PILOT #6955, I-40/I-85 EXIT 150, Haw River, NC",1,OK,done
63500,SPEEDWAY #8723,"I-75, EXIT 144B",Bridgeport,MI,342,3.339,3.469,43.3706,-83.8827,1809,43.37975,-83.89731,,"SPEEDWAY #8723, Bridgeport, MI",3,OK,done
63501,LOVES TRAVEL STOP #407,I-81 EXIT 52B OR I-76 EXIT 226,Carlisle,PA,70,4.099,4.099,40.2,-77.2034,1810,40.23066,-77.14441,,"LOVES TRAVEL STOP #407, I-81 EXIT 52B OR I-76 EXIT 226, Carlisle, PA",1,OK,done
63502,FLYING J TRAVEL PLAZA #704,I-35 & 122ND ST,Edmond,OK,483,3.30566666,3.30566666,35.6689,-97.416,1811,35.59549,-97.4363,,"FLYING J TRAVEL PLAZA #704, I-35 & 122ND ST, Edmond, OK",1,OK,done
63506,KWIK TRIP #342,"I-39, EXIT 159",Stevens Point,WI,395,3.559,3.559,44.5241,-89.5507,1812,44.50412,-89.5671,,"KWIK TRIP #342, I-39, EXIT 159, Stevens Point, WI",1,OK,done
63509,PILOT #4557,"I-85, EXIT 166",Carnesville,GA,16,3.205666665,3.239,34.3729,-83.2328,1813,34.38987,-83.23212,,"PILOT #4557, I-85, EXIT 166, Carnesville, GA",1,OK,done
63510,PILOT #4584,"I-95, EXIT 181",Latta,SC,63,3.349,3.349,34.339,-79.4337,1814,34.34882,-79.52594,,"PILOT #4584, I-95, EXIT 181, Latta, SC",1,OK,done
63511,PILOT #4576,"I-95, EXIT 82",Saint George,SC,42,3.519,3.519,nan,nan,1815,33.26739,-80.57089,,"PILOT #4576, I-95, EXIT 82, Saint George, SC",1,OK,done
63512,SPEEDWAY #7929,"I-40, EXIT 208",Colfax,NC,65,2.854,2.854,nan,nan,1816,36.09412,-79.99544,,"SPEEDWAY #7929, I-40, EXIT 208, Colfax, NC",1,OK,done
63516,SHEETZ #701,"I-81, EXIT 273",Mount Jackson,VA,60,2.874,2.874,38.739,-78.651,1817,38.75938,-78.63703,,"SHEETZ #701, I-81, EXIT 273, Mount Jackson, VA",1,OK,done
63517,TA LINCOLN TRAVEL CENTER,"I-20, EXIT 168 & SR-77",Lincoln,AL,615,3.084,3.084,33.5935,-86.1365,1818,33.58652,-86.12469,,"TA LINCOLN TRAVEL CENTER, I-20, EXIT 168 & SR-77, Lincoln, AL",1,OK,done
63519,PILOT TRAVEL CENTERS #243,"I-64, EXIT 45 & SR-25",Nitro,WV,44,3.62566666,3.62566666,38.4117,-81.8193,1819,38.44354,-81.83081,,"PILOT TRAVEL CENTERS #243, I-64, EXIT 45 & SR-25, Nitro, WV",1,OK,done
63522,Pilot Travel Centers #411,"I-40, EXIT 238 & US-231",Lebanon,TN,460,3.24566666,3.24566666,36.204,-86.3481,1820,36.21018,-86.29094,,"Pilot Travel Centers #411, I-40, EXIT 238 & US-231, Lebanon, TN",1,OK,done
63523,PILOT TRAVEL CENTER #441,"I-65, EXIT 334",Decatur,AL,615,3.859,3.859,34.5731,-86.9905,1821,34.53799,-86.91088,,"PILOT TRAVEL CENTER #441, I-65, EXIT 334, Decatur, AL",1,OK,done
63524,PILOT TRAVEL CENTER #416,"I-75/SR-401, EXIT 101",Cordele,GA,10,3.308999995,3.33233333,31.9563,-83.7694,1822,31.95947,-83.74682,,"PILOT TRAVEL CENTER #416, I-75/SR-401, EXIT 101, Cordele, GA",1,OK,done
63530,BIG EASY TRAVEL PLAZA,"I-10, EXIT 239-B",New Orleans,LA,725,3.799,3.799,30.0687,-89.9288,1823,30.00484,-90.03246,,"BIG EASY TRAVEL PLAZA, I-10, EXIT 239-B, New Orleans, LA",1,OK,done
63532,FUELSMART,SR-165,Muskogee,OK,560,3.25233333,3.25233333,35.7432,-95.3567,1824,35.76664,-95.31009,,"FUELSMART, SR-165, Muskogee, OK",1,OK,done
63533,FLYING J TRAVEL PLAZA #638,"I-84, EXIT 29",Caldwell,ID,785,3.78733333,3.78733333,43.6453,-116.6594,1825,43.66209,-116.6547,,"FLYING J TRAVEL PLAZA #638, I-84, EXIT 29, Caldwell, ID",1,OK,done
63538,SUAMICO CITGO,"US-41/US-141, EXIT 176 & CR-B",Suamico,WI,360,3.269,3.269,44.6354,-88.0683,1826,44.63231,-88.0472,,"SUAMICO CITGO, US-41/US-141, EXIT 176 & CR-B, Suamico, WI",1,OK,done
63540,GAS N GO,"I-75, EXIT 149",Byron,GA,85,3.17233333,3.17233333,32.6476,-83.7539,1827,32.65696,-83.74406,,"GAS N GO, I-75, EXIT 149, Byron, GA",1,OK,done
63545,LOVES TRAVEL STOP #397,"I-85, EXIT 104",Blacksburg,SC,210,3.419,3.419,35.122,-81.5182,1828,35.15709,-81.47857,,"LOVES TRAVEL STOP #397, I-85, EXIT 104, Blacksburg, SC",1,OK,done
63546,CITGO QUIK MART,SR/15 & SR-68,Tennille,GA,85,3.46566666,3.46566666,32.9359,-82.8134,1829,32.93582,-82.81214,,"CITGO QUIK MART, SR/15 & SR-68, Tennille, GA",1,OK,done
63563,PILOT TRAVEL CENTERS #209,"I-10, EXIT 140",Van Horn,TX,640,3.659,3.659,31.0407,-104.8341,1830,31.03599,-104.82999,,"PILOT TRAVEL CENTERS #209, I-10, EXIT 140, Van Horn, TX",1,OK,done
63564,PILOT TRAVEL CENTERS #213,"I-70, EXIT 94 (WILSON ROAD)",Columbus,OH,315,3.509,3.509,39.9862,-82.9855,1831,39.97464,-83.09928,,"PILOT TRAVEL CENTERS #213, I-70, EXIT 94 (WILSON ROAD), Columbus, OH",1,OK,done
63565,LOVES TRAVEL STOP #296,"I-8, EXIT 115 & SR-85",Gila Bend,AZ,930,3.889,3.889,32.9662,-112.7154,1832,32.94715,-112.71729,,"LOVES TRAVEL STOP #296, I-8, EXIT 115 & SR-85, Gila Bend, AZ",1,OK,done
63566,PORT ALLEN TRUCKSTOP,"I-10, EXIT 151 & SR-415",Port Allen,LA,600,3.259,3.259,30.4456,-91.2098,1833,30.45172,-91.246,,"PORT ALLEN TRUCKSTOP, I-10, EXIT 151 & SR-415, Port Allen, LA",1,OK,done
63568,FLYING J TRAVEL PLAZA #658,"I-35, EXIT 127",Emporia,KS,336,3.25233333,3.25233333,38.4028,-96.1932,1834,38.41121,-96.23714,,"FLYING J TRAVEL PLAZA #658, I-35, EXIT 127, Emporia, KS",1,OK,done
63569,Flying J Dealer #893,"I-80, EXIT 40 (US-59)",Avoca,IA,319,3.659,3.659,41.4828,-95.3373,1835,41.4839,-95.33717,,"Flying J Dealer #893, I-80, EXIT 40 (US-59), Avoca, IA",1,OK,done
63570,PILOT TRAVEL CENTERS #287,"I-71, EXIT 204 & SR-83",Burbank,OH,305,3.699,3.699,40.9862,-81.9949,1836,41.00041,-82.00054,,"PILOT TRAVEL CENTERS #287, I-71, EXIT 204 & SR-83, Burbank, OH",1,OK,done
63571,Palace Truckstop,"I-10, EXIT 246 & I-510, EXIT 2C",New Orleans,LA,725,3.299,3.299,30.0687,-89.9288,1837,30.01477,-89.93969,,"Palace Truckstop, I-10, EXIT 246 & I-510, EXIT 2C, New Orleans, LA",1,OK,done
63572,PILOT TRAVEL CENTER #211,"I-40, EXIT 9 & SR-95",Lake Havasu City,AZ,910,3.924,3.999,34.5006,-114.3113,1838,34.72836,-114.31563,,"PILOT TRAVEL CENTER #211, I-40, EXIT 9 & SR-95, Lake Havasu City, AZ",1,OK,done
63574,PILOT TRAVEL CENTERS #232,"I-84, EXIT 376A",Ontario,OR,982,3.699,3.699,44.0259,-116.976,1839,44.02539,-116.95252,,"PILOT TRAVEL CENTERS #232, I-84, EXIT 376A, Ontario, OR",1,OK,done
63575,OKEMAH TRAVEL CENTER,"I-40, EXIT 221 (ST 27)",Okemah,OK,483,2.879,2.879,35.4292,-96.2998,1840,,,"ERROR: 403 Denied: {""message"":""Missing Authentication Token""}",,99,ERROR,not done
63577,PILOT TRAVEL CENTERS #236,"I-80, EXIT 122",Minooka,IL,290,3.799,3.799,41.4507,-88.2791,1841,41.46076,-88.27203,,"PILOT TRAVEL CENTERS #236, I-80, EXIT 122, Minooka, IL",1,OK,done
63579,301 PLAZA,US-301 & SR-299,Middletown,DE,243,3.239,3.239,39.445,-75.7183,1842,39.42195,-75.77076,,"301 PLAZA, US-301 & SR-299, Middletown, DE",1,OK,done
63580,FLYING J TRAVEL PLAZA #637,"I-380, EXIT 68",Evansdale,IA,565,3.779,3.779,42.4635,-92.2766,1843,42.45994,-92.25183,,"FLYING J TRAVEL PLAZA #637, I-380, EXIT 68, Evansdale, IA",1,OK,done
63581,CASEYS #4453,"I-75, EXIT 120",Lexington,KY,410,3.224,3.224,38.0423,-84.4587,1844,38.13991,-84.5296,,"CASEYS #4453, I-75, EXIT 120, Lexington, KY",1,OK,done
63582,T BONE TRUCK STOP,US-30,Columbus,NE,313,3.099,3.099,41.4366,-97.3565,1845,41.41057,-97.37603,,"T BONE TRUCK STOP, US-30, Columbus, NE",1,OK,done
63583,CUBBYS #110,"I-80, EXIT 353",Columbus,NE,313,3.179,3.179,41.4366,-97.3565,1846,41.52389,-97.26472,,"CUBBYS #110, I-80, EXIT 353, Columbus, NE",1,OK,done
63584,PILOT TRAVEL CENTERS #417,"I-20, EXIT 19",Temple,GA,18,3.419,3.449,33.7342,-85.0289,1847,33.71974,-85.02653,,"PILOT TRAVEL CENTERS #417, Temple, GA",3,OK,done
63586,LOVES TRAVEL STOP #295,US-412 & US-69,Chouteau,OK,560,3.29066666,3.29066666,36.1894,-95.3374,1848,36.16348,-95.34299,,"LOVES TRAVEL STOP #295, US-412 & US-69, Chouteau, OK",1,OK,done
63587,24/7 TRAVEL PLAZA,"I-135, EXIT 92",Salina,KS,523,2.974,2.974,38.8136,-97.6143,1849,38.82787,-97.63766,,"24/7 TRAVEL PLAZA, I-135, EXIT 92, Salina, KS",1,OK,done
63588,KWIK TRIP #686,"I-94, EXIT 333/US-41 & SR-20",Sturtevant,WI,444,3.769,3.769,42.6995,-87.9019,1850,42.72027,-87.95377,,"KWIK TRIP #686, I-94, EXIT 333/US-41 & SR-20, Sturtevant, WI",1,OK,done
63594,PILOT TRAVEL CENTERS #49,"I-24, EXIT 89",Oak Grove,KY,415,3.15233333,3.15233333,36.6686,-87.4216,1851,36.69282,-87.45034,,"PILOT TRAVEL CENTERS #49, I-24, EXIT 89, Oak Grove, KY",1,OK,done
63595,SPEEDWAY #5236,"I-75, EXIT 122",Lima,OH,411,3.25566666,3.25566666,40.741,-84.112,1852,40.69883,-84.09357,,"SPEEDWAY #5236, I-75, EXIT 122, Lima, OH",1,OK,done
63596,PILOT TRAVEL CENTERS #442,"I-55, EXIT 19",Hayti,MO,275,3.25566666,3.25566666,36.2323,-89.7475,1853,36.22788,-89.72517,,"PILOT TRAVEL CENTERS #442, I-55, EXIT 19, Hayti, MO",1,OK,done
63597,PILOT TRAVEL CENTERS #163,"I-10, EXIT 24",Lordsburg,NM,640,3.439,3.439,32.3438,-108.7021,1854,32.22744,-108.98591,,"PILOT TRAVEL CENTERS #163, I-10, EXIT 24, Lordsburg, NM",1,OK,done
63598,PILOT TRAVEL CENTERS #164,"I-90/I-94, EXIT 69 & SR-82",Mauston,WI,420,3.299,3.299,43.7995,-90.0775,1855,43.79715,-90.05099,,"PILOT TRAVEL CENTERS #164, I-90/I-94, EXIT 69 & SR-82, Mauston, WI",1,OK,done
63599,PWI #978,"I-215, EXIT 21",Salt Lake City,UT,835,3.359,3.359,40.7776,-111.9311,1856,40.73632,-111.9492,,"PWI #978, I-215, EXIT 21, Salt Lake City, UT",1,OK,done
63600,PILOT TRAVEL CENTERS #77,"I-55 /I-20, EXIT 45",Jackson,MS,760,3.149,3.149,32.3157,-90.2125,1857,32.27313,-90.19265,,"PILOT TRAVEL CENTERS #77, I-55 /I-20, EXIT 45, Jackson, MS",1,OK,done
63601,PILOT TRAVEL CENTERS #206,"I-20, EXIT 406",Weatherford,TX,630,3.209,3.209,32.7536,-97.7723,1858,32.72699,-97.8258,,"PILOT TRAVEL CENTERS #206, I-20, EXIT 406, Weatherford, TX",1,OK,done
63602,LOVES TRAVEL STOP #285,I-40 EXIT 277,Santa Rosa,NM,580,3.474,3.474,34.9361,-104.6769,1859,34.94669,-104.6378,,"LOVES TRAVEL STOP #285, I-40 EXIT 277, Santa Rosa, NM",1,OK,done
63603,LOVES TRAVEL STOP #290,US-59/US-69/S LOOP 287 & FM-841,Lufkin,TX,610,3.649,3.649,31.3217,-94.7277,1860,31.37207,-94.7141,,"LOVES TRAVEL STOP #290, US-59/US-69/S LOOP 287 & FM-841, Lufkin, TX",1,OK,done
63604,7-ELEVEN #40363,US-17/SR-15 & SR-100,Palatka,FL,75,3.364,3.364,29.6493,-81.6705,1861,29.65582,-81.6554,,"7-ELEVEN #40363, US-17/SR-15 & SR-100, Palatka, FL",1,OK,done
63605,FLYING J TRAVEL PLAZA #663,"I-64, EXIT 43 & SR-395",Waddy,KY,415,3.759,3.759,nan,nan,1862,38.15624,-85.06776,,"FLYING J TRAVEL PLAZA #663, I-64, EXIT 43 & SR-395, Waddy, KY",1,OK,done
63606,FLYING J TRAVEL PLAZA #652,"I-65/US-52, EXIT 139 & SR-39",Lebanon,IN,375,3.64066666,3.64066666,40.0324,-86.4551,1863,40.03186,-86.47296,,"FLYING J TRAVEL PLAZA #652, I-65/US-52, EXIT 139 & SR-39, Lebanon, IN",1,OK,done
63607,ROAD RANGER #209,"I-90/94,  EXIT 48",Oakdale,WI,420,3.234,3.234,43.9622,-90.3791,1864,43.96383,-90.37594,,"ROAD RANGER #209, I-90/94,  EXIT 48, Oakdale, WI",1,OK,done
63608,ROAD RANGER #206,US-20,Winnebago,IL,520,3.269,3.299,42.2671,-89.234,1865,42.28045,-89.24219,,"ROAD RANGER #206, US-20, Winnebago, IL",1,OK,done
63609,ROAD RANGER #203,US-20 & SR-2,Rockford,IL,520,3.269,3.299,42.2596,-89.064,1866,42.27281,-89.09438,,"ROAD RANGER #203, US-20 & SR-2, Rockford, IL",1,OK,done
63612,FLYING J TRAVEL PLAZA #622,"I-95/SR-9, EXIT 131 & SR-68 & SR-713",Fort Pierce,FL,95,3.499,3.499,27.4255,-80.3431,1867,27.44846,-80.39882,,"FLYING J TRAVEL PLAZA #622, I-95/SR-9, EXIT 131 & SR-68 & SR-713, Fort Pierce, FL",1,OK,done
63613,FLYING J TRAVEL PLAZA #690,"I-10/US-70, EXIT 24",Lordsburg,NM,640,3.439,3.439,32.3438,-108.7021,1868,32.27569,-108.8878,,"FLYING J TRAVEL PLAZA #690, I-10/US-70, EXIT 24, Lordsburg, NM",1,OK,done
63614,PILOT TRAVEL CENTERS #446,"I-69, EXIT 234",Daleville,IN,457,3.5815,3.649,40.1187,-85.5567,1869,40.11483,-85.57318,,"PILOT TRAVEL CENTERS #446, I-69, EXIT 234, Daleville, IN",1,OK,done
63615,One9 #1413,"I-81, EXIT 101",Dublin,VA,185,3.24233333,3.24233333,37.0987,-80.6831,1870,37.08253,-80.65314,,"One9 #1413, I-81, EXIT 101, Dublin, VA",1,OK,done
63616,SPEEDWAY #8876,"US-23, EXIT 50",Whitmore Lake,MI,342,3.624,3.749,42.4258,-83.753,1871,42.39361,-83.76131,,"SPEEDWAY #8876, US-23, EXIT 50, Whitmore Lake, MI",1,OK,done
63619,PILOT TRAVEL CENTERS #428,"I-20, EXIT 112",West Monroe,LA,760,3.20566666,3.20566666,32.512,-92.1513,1872,32.50724,-92.1939,,"PILOT TRAVEL CENTERS #428, I-20, EXIT 112, West Monroe, LA",1,OK,done
63620,LOVES TRAVEL STOP #420,"I-20, EXIT 47",Flowood,MS,620,3.149,3.149,32.3359,-90.0802,1873,32.27883,-90.15542,,"LOVES TRAVEL STOP #420, I-20, EXIT 47, Flowood, MS",1,OK,done
63621,FUEL CITY FRIENDLYS,"I-35E, EXIT 435",Dallas,TX,630,2.96566666,2.96566666,32.7935,-96.7667,1874,,,"ERROR: 403 Denied: {""message"":""Missing Authentication Token""}",,99,ERROR,not done
63623,PILOT TRAVEL CENTER #90,"I-95/SR-9, EXIT 129 & SR-91, EXIT 152 & SR-70",Fort Pierce,FL,95,3.489,3.519,27.4255,-80.3431,1875,27.44897,-80.39779,,"PILOT TRAVEL CENTER #90, I-95/SR-9, EXIT 129 & SR-91, EXIT 152 & SR-70, Fort Pierce, FL",1,OK,done
63624,FROG CITY TRAVEL PLAZA,"I-10, EXIT 87",Rayne,LA,690,3.36566666,3.36566666,30.2403,-92.2668,1876,,,"ERROR: 403 Denied: {""message"":""Missing Authentication Token""}",,99,ERROR,not done
63625,FLYING J TRAVEL PLAZA #688,"I-295, DEEP WATER STREET",Penns Grove,NJ,243,3.989,3.989,39.7275,-75.4691,1877,39.6844,-75.48482,,"FLYING J TRAVEL PLAZA #688, I-295, DEEP WATER STREET, Penns Grove, NJ",1,OK,done
63627,PILOT TRAVEL CENTERS #174,I-78 & SR-15,New Albany,MS,435,3.859,3.859,34.4909,-89.0201,1878,34.47049,-89.00581,,"PILOT TRAVEL CENTERS #174, I-78 & SR-15, New Albany, MS",1,OK,done
63628,PILOT TRAVEL CENTERS #75,"I-65, EXIT 19 & US-43/SR-13",Satsuma,AL,715,3.197,3.199,30.8578,-88.0631,1879,30.87222,-88.04581,,"PILOT TRAVEL CENTERS #75, I-65, EXIT 19 & US-43/SR-13, Satsuma, AL",1,OK,done
63629,SPEEDWAY #4523,"I-94, EXIT 88",Osseo,WI,448,3.54566666,3.54566666,44.5795,-91.212,1880,44.5786,-91.21026,,"SPEEDWAY #4523, I-94, EXIT 88, Osseo, WI",1,OK,done
63630,TA DENVER EAST TRAVEL CENTER,"I-70 & I-270, EXIT 278",Commerce City,CO,800,3.37566666,3.37566666,39.8641,-104.843,1881,39.77822,-104.90924,,"TA DENVER EAST TRAVEL CENTER, I-70 & I-270, EXIT 278, Commerce City, CO",1,OK,done
63635,SAPP BROS TRAVEL CENTER,"I-70, EXIT 295",Junction City,KS,523,3.709,3.709,39.0277,-96.8508,1882,39.01032,-96.82957,,"SAPP BROS TRAVEL CENTER, I-70, EXIT 295, Junction City, KS",1,OK,done
63636,PILOT TRAVEL CENTER #279,"I-19, EXIT 12 & SR-289",Rio Rico,AZ,980,3.6365,3.659,31.4957,-110.9885,1883,31.43086,-110.95941,,"PILOT TRAVEL CENTER #279, I-19, EXIT 12 & SR-289, Rio Rico, AZ",1,OK,done
63637,PILOT TRAVEL CENTERS #454,"I-70, EXIT 79",London,OH,315,3.509,3.509,39.8935,-83.4375,1884,39.95679,-83.36888,,"I-70 EXIT 79, London, OH",4,OK,done
63639,PILOT TRAVEL CENTERS #444,"I-70, EXIT 23",Brazil,IN,375,3.939,3.939,39.5226,-87.124,1885,39.45151,-87.12501,,"PILOT TRAVEL CENTERS #444, I-70, EXIT 23, Brazil, IN",1,OK,done
63640,SUPER EXPRESS STOP,"I-64, EXIT 113",Mount Sterling,KY,410,3.859,3.859,38.0648,-83.9472,1886,38.08777,-83.90313,,"SUPER EXPRESS STOP, I-64, EXIT 113, Mount Sterling, KY",1,OK,done
63641,FLYING J TRAVEL PLAZA #625,"I-4/SR-400, EXIT 10 & SR-579",Seffner,FL,225,3.44233333,3.44233333,27.9981,-82.2735,1887,28.00973,-82.30329,,"FLYING J TRAVEL PLAZA #625, I-4/SR-400, EXIT 10 & SR-579, Seffner, FL",1,OK,done
63642,COLTS QUICK DRAW,"I-40, EXIT 125 & US-65/SR-25",Greenbrier,AR,695,3.30733333,3.30733333,35.2289,-92.3836,1888,35.20686,-92.44488,,"COLTS QUICK DRAW, I-40, EXIT 125 & US-65/SR-25, Greenbrier, AR",1,OK,done
63648,CIRCLE K #2723333,"I-75, EXIT 216",Mcdonough,GA,67,3.209,3.209,nan,nan,1889,33.40875,-84.16622,,"CIRCLE K #2723333, I-75, EXIT 216, Mcdonough, GA",1,OK,done
63649,ONE TRIP,US-84,Homerville,GA,10,3.44233333,3.44233333,31.0385,-82.742,1890,31.03655,-82.74727,,"ONE TRIP, US-84, Homerville, GA",1,OK,done
63651,CIRCLE K #2723346,US-29/S8,Athens,GA,16,3.399,3.399,33.9508,-83.3689,1891,33.94129,-83.50044,,"CIRCLE K #2723346, Athens, GA",3,OK,done
63652,CASEYS #3292,"I-380, EXIT 43 & US-20",Independence,IA,380,3.599,3.599,42.4621,-91.9027,1892,42.44849,-91.89428,,"CASEYS #3292, I-380, EXIT 43 & US-20, Independence, IA",1,OK,done
63653,FLYING J TRAVEL PLAZA #760,US-30 & SR-232,Cokeville,WY,835,3.899,3.899,42.0679,-110.9609,1893,42.08713,-110.94728,,"FLYING J TRAVEL PLAZA #760, US-30 & SR-232, Cokeville, WY",1,OK,done
63661,FLYING J TRAVEL PLAZA #677,"US-78, EXIT 6",Olive Branch,MS,435,3.28566666,3.28566666,34.961,-89.8469,1894,34.92851,-89.79377,,"FLYING J TRAVEL PLAZA #677, US-78, EXIT 6, Olive Branch, MS",1,OK,done
63662,PILOT TRAVEL CENTERS #267,"I-75, EXIT 146",Byron,GA,85,3.3756666600000003,3.38566666,32.6476,-83.7539,1895,32.61446,-83.74419,,"PILOT TRAVEL CENTERS #267, I-75, EXIT 146, Byron, GA",1,OK,done
63667,CIRCLE K #2723875,SR-41/SR-45,Jamestown,SC,42,2.974,2.974,33.2858,-79.6945,1896,33.28573,-79.69381,,"CIRCLE K #2723875, Jamestown, SC",3,OK,done
63668,PILOT #4579,"I-26, EXIT 139",Saint Matthews,SC,135,3.509,3.509,nan,nan,1897,33.63709,-80.87726,,"PILOT #4579, I-26, EXIT 139, Saint Matthews, SC",1,OK,done
63669,One9 #1248,"I-45, EXIT 271",Wilmer,TX,630,2.75566666,2.75566666,32.5983,-96.6815,1898,32.59434,-96.68142,,"One9 #1248, I-45, EXIT 271, Wilmer, TX",1,OK,done
63671,WESTERN TRAVEL TERMINAL,US-26 & US-85,Torrington,WY,795,3.399,3.399,42.0653,-104.1737,1899,42.05511,-104.16587,,"WESTERN TRAVEL TERMINAL, US-26 & US-85, Torrington, WY",1,OK,done
63676,CORNER EXPRESS,ST 55,Wellston,MI,456,3.499,3.499,44.2179,-85.962,1900,44.20801,-85.9577,,"ST 55, Wellston, MI",4,OK,done
63680,ALLTOWN MARKETS-FLYING J #896,I-93 EXIT 11 & SR 3A,Bow,NH,39,4.099,4.099,nan,nan,1901,,,"ERROR: 403 Denied: {""message"":""Missing Authentication Token""}",,99,ERROR,not done
63685,RIVER HEIGHTS GROCERY,US-64/SR-69/SR-15,Crump,TN,435,3.099,3.099,35.2315,-88.3381,1902,35.22033,-88.31295,,"RIVER HEIGHTS GROCERY, US-64/SR-69/SR-15, Crump, TN",1,OK,done
63690,LOVES TRAVEL STOP #277,"I-30, EXIT 46",Prescott,AR,635,3.47566666,3.47566666,33.8056,-93.3909,1903,33.82874,-93.39557,,"LOVES TRAVEL STOP #277, I-30, EXIT 46, Prescott, AR",1,OK,done
63691,JIMMIES AUTO TRUCK PLAZA,"I-10, EXIT 262",Lee,FL,20,3.84733333,3.84733333,30.4114,-83.3003,1904,30.37616,-83.29548,,"JIMMIES AUTO TRUCK PLAZA, I-10, EXIT 262, Lee, FL",1,OK,done
63694,PILOT TRAVEL CENTERS #261,"I-55, EXIT 186",Winona,MS,576,3.499,3.499,33.4899,-89.728,1905,33.48493,-89.76591,,"PILOT TRAVEL CENTERS #261, I-55, EXIT 186, Winona, MS",1,OK,done
63695,FLYING J TRAVEL PLAZA #634,"I-20/SR-402, EXIT 19 & SR-113",Temple,GA,18,3.419,3.419,33.7342,-85.0289,1906,33.72631,-85.02758,,"FLYING J TRAVEL PLAZA #634, I-20/SR-402, EXIT 19 & SR-113, Temple, GA",1,OK,done
63697,MILLER MART #40,"I-64, EXIT 255B",Newport News,VA,130,3.30566666,3.30566666,37.1051,-76.5185,1907,37.1239,-76.50909,,"MILLER MART #40, I-64, EXIT 255B, Newport News, VA",1,OK,done
63699,DEWITT TRAVEL MART,"US-30, EXIT 313",De Witt,IA,270,3.599,3.599,nan,nan,1908,41.81531,-90.44025,,"DEWITT TRAVEL MART, US-30, EXIT 313, De Witt, IA",1,OK,done
63700,WIXOM FUEL STOP,"I-96, EXIT 159",Wixom,MI,325,3.999,3.999,42.5243,-83.5346,1909,42.49937,-83.54293,,"WIXOM FUEL STOP, I-96, EXIT 159, Wixom, MI",1,OK,done
63701,FLYING J TRAVEL PLAZA #742,"I-80, EXIT 98/99",Tooele,UT,835,3.759,3.759,40.5393,-112.3082,1910,40.68628,-112.26559,,"FLYING J TRAVEL PLAZA #742, I-80, EXIT 98/99, Tooele, UT",1,OK,done
63702,QUICK FUEL #2501,"I-264, EXIT 14",Louisville,KY,415,3.08233333,3.08233333,38.1663,-85.6485,1911,38.19823,-85.70387,,"QUICK FUEL #2501, I-264, EXIT 14, Louisville, KY",1,OK,done
63703,QUICK FUEL #2303,"I-71, EXIT 104/FRANK RD EXIT",Columbus,OH,315,3.56566666,3.56566666,39.9862,-82.9855,1912,39.91582,-83.02815,,"QUICK FUEL #2303, I-71, EXIT 104/FRANK RD EXIT, Columbus, OH",1,OK,done
63704,QUICK FUEL #2301,"I-275, EXIT 44",Cincinnati,OH,300,3.239,3.239,39.1413,-84.506,1913,39.28693,-84.42917,,"QUICK FUEL #2301, I-275, EXIT 44, Cincinnati, OH",1,OK,done
63706,QUICK FUEL #1003,"I-41/US-45, EXIT 45 & CR-EE",Milwaukee,WI,444,3.42566666,3.42566666,43.0642,-87.9675,1914,43.04228,-87.97054,,"QUICK FUEL #1003, I-41/US-45, EXIT 45 & CR-EE, Milwaukee, WI",1,OK,done
63715,FLYING J TRAVEL PLAZA #772,"I-215, EXIT 28",North Salt Lake,UT,835,3.73233333,3.73233333,40.8439,-111.9187,1915,40.77004,-111.86383,,"FLYING J TRAVEL PLAZA #772, I-215, EXIT 28, North Salt Lake, UT",1,OK,done
63716,EXPRESS LANE #34,"I-39, EXIT 115",Rockford,IL,520,3.649,3.749,42.2596,-89.064,1916,42.237,-89.10725,,"EXPRESS LANE #34, I-39, EXIT 115, Rockford, IL",1,OK,done
63718,ROAD RANGER #210,"I-39/US-51, EXIT 99 & SR-38",Rochelle,IL,520,3.699,3.699,41.9197,-89.0629,1917,41.9338,-89.03521,,"ROAD RANGER #210, I-39/US-51, EXIT 99 & SR-38, Rochelle, IL",1,OK,done
63720,FLYING J TRAVEL PLAZA #611,"I-10, EXIT 137",Phoenix,AZ,930,3.589,3.589,33.5722,-112.0892,1918,33.46068,-112.20453,,"FLYING J TRAVEL PLAZA #611, I-10, EXIT 137, Phoenix, AZ",1,OK,done
63721,ROAD RUNNER TRAVEL CENTER,I-69E/US-77 & CR-892,Robstown,TX,625,3.349,3.349,27.794,-97.6692,1919,27.83857,-97.63298,,"ROAD RUNNER TRAVEL CENTER, I-69E/US-77 & CR-892, Robstown, TX",1,OK,done
63722,LOVES TRAVEL STOP #240,"I-10, EXIT 151 & SR-415",Port Allen,LA,600,3.23233333,3.23233333,30.4456,-91.2098,1920,30.45172,-91.246,,"LOVES TRAVEL STOP #240, I-10, EXIT 151 & SR-415, Port Allen, LA",1,OK,done
63724,LOVES TRAVEL STOP #244,"I-40, EXIT 87 & US-70/US-412",Jackson,TN,435,3.49733333,3.49733333,35.6538,-88.8354,1921,35.67653,-88.74157,,"LOVES TRAVEL STOP #244, I-40, EXIT 87 & US-70/US-412, Jackson, TN",1,OK,done
63725,TA CARTERSVILLE TRAVEL CENTER,"I-75, EXIT 296",Cartersville,GA,18,3.599,3.599,34.1644,-84.8009,1922,34.27456,-84.80635,,"TA CARTERSVILLE TRAVEL CENTER, I-75, EXIT 296, Cartersville, GA",1,OK,done
63726,FLYING J TRAVEL PLAZA #706,"I-44 & I-244, EXIT 236",Tulsa,OK,560,3.36566666,3.36566666,36.1283,-95.9042,1923,36.16192,-95.83258,,"FLYING J TRAVEL PLAZA #706, I-44 & I-244, EXIT 236, Tulsa, OK",1,OK,done
63727,LOVES TRAVEL STOP #403,"I-81, EXIT 3",Binghamton,NY,32,3.709,3.749,42.1014,-75.9093,1924,42.10167,-75.83622,,"LOVES TRAVEL STOP #403, I-81, EXIT 3, Binghamton, NY",1,OK,done
63728,PILOT TRAVEL CENTERS #43,"I-80, EXIT 284",Walcott,IA,270,3.87233333,3.88566666,41.5989,-90.7744,1925,41.61431,-90.78216,,"PILOT TRAVEL CENTERS #43, I-80, EXIT 284, Walcott, IA",1,OK,done
63729,PILOT TRAVEL CENTERS #147,"I-80, EXIT 410",West Wendover,NV,835,3.709,3.709,40.7407,-114.0783,1926,40.73945,-114.06643,,"PILOT TRAVEL CENTERS #147, I-80, EXIT 410, West Wendover, NV",1,OK,done
63730,PILOT TRAVEL CENTERS #309,"I-77, EXIT 25",Caldwell,OH,430,3.65233333,3.65233333,39.7468,-81.5127,1927,39.73776,-81.52745,,"PILOT TRAVEL CENTERS #309, I-77, EXIT 25, Caldwell, OH",1,OK,done
63731,LOVES TRAVEL STOP #243,"I-10, EXIT 43 & SR-383",Iowa,LA,690,3.58733333,3.58733333,30.2393,-93.013,1928,30.25316,-93.01308,,"LOVES TRAVEL STOP #243, I-10, EXIT 43 & SR-383, Iowa, LA",1,OK,done
63732,LOVES TRAVEL STOP #265,"I-10, EXIT 200",Eloy,AZ,930,3.434,3.434,32.747,-111.5992,1929,32.80658,-111.6715,,"LOVES TRAVEL STOP #265, I-10, EXIT 200, Eloy, AZ",1,OK,done
63734,CIRCLE K #2723472,US-70 & SR-58,Kinston,NC,63,3.319,3.319,35.2747,-77.5939,1930,35.23965,-77.57687,,"CIRCLE K #2723472, US-70 & SR-58, Kinston, NC",1,OK,done
63736,PLATEAU TRUCK AND AUTO CENTER,"I-10, EXIT 159",Van Horn,TX,640,3.099,3.099,31.0407,-104.8341,1931,31.06165,-104.50571,,"PLATEAU TRUCK AND AUTO CENTER, I-10, EXIT 159, Van Horn, TX",1,OK,done
63737,I 10 DUSON TRUCK STOP,"I-10, AUSTRIA ROAD",Duson,LA,730,3.41066666,3.41066666,30.2365,-92.193,1932,30.23807,-92.19302,,"I 10 DUSON TRUCK STOP, I-10, AUSTRIA ROAD, Duson, LA",1,OK,done
63738,U STOP 33,US-77,Beatrice,NE,413,3.399,3.399,40.2736,-96.7455,1933,40.29645,-96.74675,,"U STOP 33, US-77, Beatrice, NE",1,OK,done
63740,CIRCLE K #2723478,US-29,Blairs,VA,185,3.439,3.439,36.6958,-79.3774,1934,36.73296,-79.38248,,"CIRCLE K #2723478, US-29, Blairs, VA",1,OK,done
63741,SHELL,"I-295, EXIT 15",Chester,VA,180,3.20233333,3.20233333,37.3531,-77.4342,1935,37.35589,-77.33739,,"SHELL, I-295, EXIT 15, Chester, VA",1,OK,done
63743,PILOT TRAVEL CENTERS #370,"I-81, EXIT 175",Pittston,PA,200,4.17566666,4.17566666,41.3272,-75.7888,1936,41.32374,-75.74756,,"PILOT TRAVEL CENTERS #370, I-81, EXIT 175, Pittston, PA",1,OK,done
63744,PILOT TRAVEL CENTERS #439,"I-24, EXIT 86",Oak Grove,KY,415,3.15233333,3.15233333,36.6686,-87.4216,1937,36.69282,-87.45034,,"PILOT TRAVEL CENTERS #439, I-24, EXIT 86, Oak Grove, KY",1,OK,done
63745,PILOT TRAVEL CENTER #447,"I-64, EXIT 25",Haubstadt,IN,340,3.959,3.959,38.2039,-87.5751,1938,38.17479,-87.5492,,"PILOT TRAVEL CENTER #447, I-64, EXIT 25, Haubstadt, IN",1,OK,done
63746,PILOT TRAVEL CENTERS #453,"I-85, EXIT 90",Gaffney,SC,210,3.429,3.429,35.0743,-81.6552,1939,35.07783,-81.70352,,"PILOT TRAVEL CENTERS #453, I-85, EXIT 90, Gaffney, SC",1,OK,done
63747,PILOT TRAVEL CENTERS #440,"I-71, EXIT 28",Pendleton,KY,415,3.759,3.759,nan,nan,1940,38.45751,-85.29939,,"PILOT TRAVEL CENTERS #440, I-71, EXIT 28, Pendleton, KY",1,OK,done
63751,PETRO STOPPING CENTER #328,"I-20 & I-55, EXIT 45",Jackson,MS,620,3.109,3.109,32.3157,-90.2125,1941,32.27951,-90.19666,,"PETRO STOPPING CENTER #328, I-20 & I-55, EXIT 45, Jackson, MS",1,OK,done
63752,MR FUEL #732,"I-80, EXIT 226",Girard,OH,573,3.239,3.239,41.1665,-80.6963,1942,41.13989,-80.72412,,"MR FUEL #732, I-80, EXIT 226, Girard, OH",1,OK,done
63753,PILOT TRAVEL CENTER #4558,"I-75, EXIT 318",Calhoun,GA,285,3.29566666,3.30566666,34.491,-84.9386,1943,34.55267,-84.93631,,"PILOT TRAVEL CENTER #4558, I-75, EXIT 318, Calhoun, GA",1,OK,done
63754,U SAVE TRAVEL PLAZA,US-19 & SR-129,Mount Nebo,WV,44,3.599,3.599,nan,nan,1944,38.19653,-80.86138,,"U SAVE TRAVEL PLAZA, US-19 & SR-129, Mount Nebo, WV",1,OK,done
63755,PILOT TRAVEL CENTERS #196,"I-40, EXIT 325 & US-64",Roland,OK,645,3.739,3.739,35.4147,-94.5137,1945,35.40464,-94.52169,,"PILOT TRAVEL CENTERS #196, I-40, EXIT 325 & US-64, Roland, OK",1,OK,done
63756,PILOT TRAVEL CENTERS #144,"I-20, EXIT 200",Augusta,GA,135,3.859,3.859,33.3645,-82.0708,1946,33.52349,-82.03074,,"PILOT TRAVEL CENTERS #144, Augusta, GA",3,OK,done
63759,BUFFALO RANCH,US/69/US-60 & US-59,Afton,OK,560,3.099,3.099,36.6965,-94.9575,1947,36.69447,-94.96229,,"BUFFALO RANCH, US/69/US-60 & US-59, Afton, OK",1,OK,done
63760,CASH MAGIC CITGO HOUMA,I-57,Houma,LA,725,3.56566666,3.56566666,29.58,-90.7059,1948,29.57177,-90.68301,,"CASH MAGIC CITGO HOUMA, I-57, Houma, LA",1,OK,done
63761,7Fleet #46589,"I-94/US-52, EXIT 205 & SR-241",Saint Michael,MN,448,3.309,3.309,nan,nan,1949,45.2094,-93.66015,,"7Fleet #46589, I-94/US-52, EXIT 205 & SR-241, Saint Michael, MN",1,OK,done
63762,MINIT MART #600643,"I-57, EXIT 322",Manteno,IL,290,3.3156666666666665,3.399,41.247,-87.8457,1950,41.24729,-87.8536,,"MINIT MART #600643, I-57, EXIT 322, Manteno, IL",1,OK,done
63763,Flying J Travel Plaza #644,"I-80, EXIT 77 & SR-351",La Salle,IL,290,3.439,3.599,nan,nan,1951,41.3691,-89.09779,,"Flying J Travel Plaza #644, I-80, EXIT 77 & SR-351, La Salle, IL",1,OK,done
63764,LOVES TRAVEL STOP #288,"I-45, EXIT 198 & US-84",Fairfield,TX,765,3.429,3.429,31.7183,-96.1697,1952,31.72428,-96.16821,,"LOVES TRAVEL STOP #288, I-45, EXIT 198 & US-84, Fairfield, TX",1,OK,done
63766,PILOT TRAVEL CENTERS #26,"US-23, EXIT 5 & US-223",Ottawa Lake,MI,325,3.6215,3.659,nan,nan,1953,41.79832,-83.69417,,"PILOT TRAVEL CENTERS #26, US-23, EXIT 5 & US-223, Ottawa Lake, MI",1,OK,done
63767,HOP-IN FOOD STORES,I-27 & FM-1729,New Deal,TX,700,2.92566666,2.92566666,33.7322,-101.8435,1954,33.73728,-101.84221,,"HOP-IN FOOD STORES, I-27 & FM-1729, New Deal, TX",1,OK,done
63768,PILOT TRAVEL CENTERS #443,"I-70, EXIT 49",Higginsville,MO,400,3.23566666,3.23566666,39.0652,-93.727,1955,39.00322,-93.73472,,"PILOT TRAVEL CENTERS #443, I-70, EXIT 49, Higginsville, MO",1,OK,done
63770,FLYING J TRAVEL PLAZA #694,"I-90, EXIT 223",Austinburg,OH,305,3.859,3.859,41.7692,-80.8556,1956,41.78937,-80.85611,,"FLYING J TRAVEL PLAZA #694, I-90, EXIT 223, Austinburg, OH",1,OK,done
63771,FLYING J FUEL STOP #572,"I-35, EXIT 144",Williams,IA,433,3.699,3.699,42.4892,-93.5412,1957,42.46616,-93.56871,,"FLYING J FUEL STOP #572, I-35, EXIT 144, Williams, IA",1,OK,done
63773,QUIKTRIP #179,ST 152,Liberty,MO,400,2.999,2.999,39.2394,-94.4191,1958,39.26825,-94.45245,,"QUIKTRIP #179, ST 152, Liberty, MO",1,OK,done
63774,PILOT TRAVEL CENTERS #150,"I-70, EXIT 24 &SR-63",Hagerstown,MD,22,3.959,3.959,39.6401,-77.7217,1959,39.63366,-77.80712,,"PILOT TRAVEL CENTERS #150, I-70, EXIT 24 &SR-63, Hagerstown, MD",1,OK,done
63775,FLYING J #646,"I-90/39, EXIT 1 & US-51 & SR-75",South Beloit,IL,290,3.799,3.799,42.4825,-89.026,1960,42.49606,-89.0197,,"FLYING J #646, I-90/39, EXIT 1 & US-51 & SR-75, South Beloit, IL",1,OK,done
63776,KWIK TRIP #334,US-169/SR-60,Mankato,MN,425,3.549,3.549,44.1715,-93.9772,1961,44.15977,-94.0146,,"KWIK TRIP #334, US-169/SR-60, Mankato, MN",1,OK,done
63777,KWIK TRIP #403,"I-35, EXIT 45",Owatonna,MN,425,3.499,3.499,44.0912,-93.2312,1962,44.096,-93.25378,,"KWIK TRIP #403, I-35, EXIT 45, Owatonna, MN",1,OK,done
63778,KWIK TRIP #662,SR-55/SR-149,Saint Paul,MN,451,3.629,3.629,nan,nan,1963,44.78965,-93.22387,,"KWIK TRIP #662, SR-55/SR-149, Saint Paul, MN",1,OK,done
63781,Pilot Travel Centers #8,US-23 & PITTSBURG RD,Circleville,OH,315,3.799,3.799,39.6063,-82.9334,1964,39.55725,-82.95812,,"Pilot Travel Centers #8, US-23 & PITTSBURG RD, Circleville, OH",1,OK,done
63782,FUEL EXPRESSO #11,"I-35, EXIT 155",Lebo,KS,400,3.17233333,3.17233333,38.4156,-95.8622,1965,,,"ERROR: 403 Denied: {""message"":""Missing Authentication Token""}",,99,ERROR,not done
63787,LOVES TRAVEL STOP #402,"I-10, EXIT 44",Biloxi,MS,715,3.449,3.449,30.4426,-88.9514,1966,30.45213,-88.93373,,"LOVES TRAVEL STOP #402, I-10, EXIT 44, Biloxi, MS",1,OK,done
63789,PILOT TRAVEL CENTER #448,"I-65, EXIT 240",Hebron,IN,365,3.4765,3.599,41.3247,-87.2018,1967,41.28862,-87.29514,,"PILOT TRAVEL CENTER #448, I-65, EXIT 240, Hebron, IN",1,OK,done
63790,PILOT TRAVEL CENTERS #412,"I-81, EXIT 4",White Pine,TN,405,3.699,3.699,36.1087,-83.297,1968,36.10865,-83.3342,,"PILOT TRAVEL CENTERS #412, I-81, EXIT 4, White Pine, TN",1,OK,done
63791,PILOT TRAVEL CENTERS #432,"I-35, EXIT 328",Waco,TX,765,3.22066666,3.22066666,31.5599,-97.1882,1969,31.45632,-97.17164,,"PILOT TRAVEL CENTERS #432, I-35, EXIT 328, Waco, TX",1,OK,done
63792,PILOT TRAVEL CENTER #424,"I-75, EXIT 358",Ocala,FL,140,3.385666665,3.41233333,29.178,-82.1511,1970,29.02473,-82.15914,,"PILOT TRAVEL CENTER #424, I-75, EXIT 358, Ocala, FL",1,OK,done
63793,HUTCH'S #113,US-183 & US-270/SR-15,Woodward,OK,483,2.999,2.999,36.4247,-99.4058,1971,36.44591,-99.43495,,"HUTCH'S #113, US-183 & US-270/SR-15, Woodward, OK",1,OK,done
63794,PILOT TRAVEL CENTERS #157,"I-30, EXIT 122",Sulphur Springs,TX,723,3.309,3.309,33.1421,-95.6122,1972,33.11698,-95.63366,,"PILOT TRAVEL CENTERS #157, I-30, EXIT 122, Sulphur Springs, TX",1,OK,done
63795,LOVES COUNTRY STORE #022,US-412,Clayton,NM,585,3.414,3.414,36.4426,-103.1574,1973,36.45349,-103.17971,,"US-412, Clayton, NM",4,OK,done
63796,PETRO STOPPING CENTER #329,"I-40/I-85, EXIT 157",Mebane,NC,65,3.999,3.999,36.0852,-79.2736,1974,36.07661,-79.22461,,"PETRO STOPPING CENTER #329, I-40/I-85, EXIT 157, Mebane, NC",1,OK,done
63798,PETRO GLADE SPRING #372,"I-81, EXIT 29",Glade Spring,VA,405,3.58733333,3.58733333,36.7899,-81.7726,1975,36.77122,-81.77946,,"PETRO GLADE SPRING #372, I-81, EXIT 29, Glade Spring, VA",1,OK,done
63799,LOVES TRAVEL STOP #204,US-69 BUS & US-69,Eufaula,OK,560,3.689,3.689,35.2923,-95.5863,1976,35.30591,-95.58829,,"LOVES TRAVEL STOP #204, US-69 BUS & US-69, Eufaula, OK",1,OK,done
63800,PILOT TRAVEL CENTER #255,"I-95, EXIT 40",Milford,CT,73,4.299,4.299,nan,nan,1977,41.23604,-73.01985,,"PILOT TRAVEL CENTER #255, I-95, EXIT 40, Milford, CT",1,OK,done
63801,PILOT #1126,"I-435, EXIT 55 & SR-210",Kansas City,MO,400,3.38233333,3.38233333,39.1238,-94.5541,1978,38.95616,-94.52772,,"PILOT #1126, I-435, EXIT 55 & SR-210, Kansas City, MO",1,OK,done
63802,CARTERS TRAVEL CENTER,"I-40, EXIT 201N",Flagstaff,AZ,930,3.689,3.689,35.1872,-111.6194,1979,,,"ERROR: 403 Denied: {""message"":""Missing Authentication Token""}",,99,ERROR,not done
63803,KOUNTRY XPRESS,"I-40, EXIT 20",Mulberry,AR,645,3.27233333,3.27233333,35.51,-94.074,1980,35.51297,-94.11455,,"KOUNTRY XPRESS, I-40, EXIT 20, Mulberry, AR",1,OK,done
63805,TEX-BEST #519,US-281 & US-281 BUS & CR-1930,Alice,TX,625,2.899,2.899,27.7556,-98.0653,1981,27.70913,-98.08584,,"TEX-BEST #519, US-281 & US-281 BUS & CR-1930, Alice, TX",1,OK,done
63812,PETRO STOPPING CENTER #330,"I-65, EXIT 86",Glendale,KY,415,3.599,3.599,nan,nan,1982,37.59845,-85.87337,,"PETRO STOPPING CENTER #330, I-65, EXIT 86, Glendale, KY",1,OK,done
63813,TA SAN ANTONIO TRAVELCENTER,"I-10 & FOSTER RD, EXIT 583",San Antonio,TX,740,3.20733333,3.20733333,29.4632,-98.5238,1983,29.4299,-98.36086,,"TA SAN ANTONIO TRAVELCENTER, I-10 & FOSTER RD, EXIT 583, San Antonio, TX",1,OK,done
63828,CIRCLE K #2723654,US-431,Boaz,AL,587,3.519,3.519,34.1985,-86.1529,1984,34.21788,-86.15699,,"CIRCLE K #2723654, US-431, Boaz, AL",1,OK,done
63829,CALERA CHEVRON,SR-25,Calera,AL,615,3.199,3.199,33.1254,-86.7449,1985,33.15624,-86.73613,,"CALERA CHEVRON, SR-25, Calera, AL",1,OK,done
63836,Double Bees #109,"I-40, EXIT 183",Carlisle,AR,695,3.139,3.139,34.7947,-91.7361,1986,34.80025,-91.75037,,"Double Bees #109, I-40, EXIT 183, Carlisle, AR",1,OK,done
63841,MAGNOLIA TRAVEL CENTER,US-82 & US-371,Magnolia,AR,635,3.599,3.599,33.2775,-93.2261,1987,33.2691,-93.26543,,"MAGNOLIA TRAVEL CENTER, US-82 & US-371, Magnolia, AR",1,OK,done
63846,71 EXPRESS,US-71,Mansfield,AR,645,3.33233333,3.33233333,35.0635,-94.2373,1988,35.06368,-94.25091,,"71 EXPRESS, US-71, Mansfield, AR",1,OK,done
63848,CIRCLE K #2706345,"I-30, EXIT 2",Texarkana,AR,723,3.479,3.479,33.436,-93.9959,1989,33.38404,-93.91532,,"CIRCLE K #2706345, I-30, EXIT 2, Texarkana, AR",1,OK,done
63850,PILOT TRAVEL CENTER #180,"I-40, EXIT 185",Bellemont,AZ,930,3.624,3.639,35.2425,-111.8138,1990,35.23824,-111.82193,,"PILOT TRAVEL CENTER #180, I-40, EXIT 185, Bellemont, AZ",1,OK,done
63854,E-Z MART #4437,US-71,Boles,AR,645,3.299,3.299,34.7861,-94.0507,1991,34.75206,-94.07601,,"E-Z MART #4437, US-71, Boles, AR",1,OK,done
63855,LOVES TRAVEL STOP #460,"I-10, EXIT 302",Benson,AZ,980,3.279,3.279,31.9157,-110.3257,1992,31.96231,-110.34506,,"LOVES TRAVEL STOP #460, I-10, EXIT 302, Benson, AZ",1,OK,done
63856,PILOT #1175,"I-17, EXIT 262 & SR-69",Mayer,AZ,930,3.69525,3.699,34.4233,-112.2408,1993,34.31903,-112.12329,,"PILOT #1175, I-17, EXIT 262 & SR-69, Mayer, AZ",1,OK,done
63870,CIRCLE K #2744074,"I-270/US-36, EXIT 4",Commerce City,CO,800,3.45566666,3.45566666,39.8641,-104.843,1994,39.78105,-104.89955,,"CIRCLE K #2744074, I-270/US-36, EXIT 4, Commerce City, CO",1,OK,done
63871,Alta Convenience Store #6317,"I-70, EXIT 19",Fruita,CO,810,3.399,3.399,39.1548,-108.7305,1995,39.15417,-108.73894,,"Alta Convenience Store #6317, I-70, EXIT 19, Fruita, CO",1,OK,done
63876,Mobil,"FL TURNPIKE,  EXIT 244",Kissimmee,FL,225,3.449,3.449,28.3041,-81.4169,1996,28.34005,-81.38746,,"Mobil, FL TURNPIKE,  EXIT 244, Kissimmee, FL",1,OK,done
63887,QUIKTRIP #757,"I-79/SR-401, EXIT 306 & SR-140",Adairsville,GA,193,2.88733333,2.88733333,34.3709,-84.9212,1997,34.37328,-84.98981,,"QUIKTRIP #757, I-79/SR-401, EXIT 306 & SR-140, Adairsville, GA",1,OK,done
63893,QUICK FUEL #2204,"I-285, EXIT 58/SR-407 & I-75, EXIT 237/SR-401",Atlanta,GA,18,3.27566666,3.27566666,33.7628,-84.422,1998,33.63907,-84.37813,,"QUICK FUEL #2204, I-285, EXIT 58/SR-407 & I-75, EXIT 237/SR-401, Atlanta, GA",1,OK,done
63894,CIRCLE K #2723653,"I-75, EXIT 124",Cartersville,GA,193,3.224,3.224,34.1644,-84.8009,1999,34.17625,-84.79298,,"CIRCLE K #2723653, I-75, EXIT 124, Cartersville, GA",1,OK,done
63895,KWIK SERV #17,"I-75, EXIT 136",Chatsworth,GA,193,3.499,3.499,34.7808,-84.7835,2000,34.1034,-84.19286,,"KWIK SERV #17, I-75, EXIT 136, Chatsworth, GA",1,OK,done
63904,SUNOCO,"I-95, EXIT 19",Savannah,GA,195,3.63233333,3.63233333,32.0286,-81.1821,2001,32.00864,-81.27958,,"SUNOCO, I-95, EXIT 19, Savannah, GA",1,OK,done
63907,QUIKTRIP #737,"I-85, EXIT 137",Jefferson,GA,16,3.119,3.119,34.1373,-83.6021,2002,34.1226,-83.60353,,"QUIKTRIP #737, I-85, EXIT 137, Jefferson, GA",1,OK,done
63909,GAS2GO,"I-95, EXIT 6",Kingsland,GA,75,3.109,3.109,30.8194,-81.7216,2003,30.81977,-81.66518,,"GAS2GO, I-95, EXIT 6, Kingsland, GA",1,OK,done
63910,OGMULGEE CHEVRON #419,"I-16, EXIT 6",Macon,GA,85,3.399,3.399,32.8065,-83.6974,2004,32.79581,-83.56958,,"OGMULGEE CHEVRON #419, I-16, EXIT 6, Macon, GA",1,OK,done
63912,PILOT TRAVEL CENTER #4562,"I-95, EXIT 1",Kingsland,GA,75,3.565666665,3.57233333,30.8194,-81.7216,2005,30.75962,-81.65592,,"PILOT TRAVEL CENTER #4562, I-95, EXIT 1, Kingsland, GA",1,OK,done
63914,CIRCLE M #12,US-23/SR-365 & SR-52,Lula,GA,18,3.539,3.539,34.3955,-83.6659,2006,34.38876,-83.66494,,"CIRCLE M #12, US-23/SR-365 & SR-52, Lula, GA",1,OK,done
63915,HIGHWAY 80 CHEVRON,"I-185, EXIT 7",Midland,GA,50,3.399,3.399,nan,nan,2007,32.57501,-84.82742,,"Midland, GA",5,OK,done
63922,THOMASVILLE TRAVEL CENTER,US-84 & SR-3,Thomasville,GA,20,3.18066666,3.18066666,30.8394,-83.9782,2008,30.87003,-83.99837,,"THOMASVILLE TRAVEL CENTER, US-84 & SR-3, Thomasville, GA",1,OK,done
63925,PILOT #4561,"I-75, EXIT 11",Valdosta,GA,20,3.32233333,3.359,30.8502,-83.2788,2009,30.75584,-83.27717,,"PILOT #4561, I-75, EXIT 11, Valdosta, GA",1,OK,done
63931,LOVES TRAVEL STOP #371,"I-95, EXIT 190",Dillon,SC,46,3.33066666,3.33066666,34.4233,-79.3689,2010,34.41958,-79.41562,,"LOVES TRAVEL STOP #371, I-95, EXIT 190, Dillon, SC",1,OK,done
63937,CUBBYS #305,"I-29, EXIT 10 & SR-2",Percival,IA,319,3.694,3.694,40.7513,-95.8133,2011,40.68921,-95.78425,,"CUBBYS #305, I-29, EXIT 10 & SR-2, Percival, IA",1,OK,done
63938,CUBBYS #301,US-34 & SR-48,Red Oak,IA,319,3.399,3.399,41.014,-95.225,2012,41.00297,-95.23313,,"CUBBYS #301, US-34 & SR-48, Red Oak, IA",1,OK,done
63942,Discount Zone,"I-10, EXIT CLEARVIEW",New Orleans,LA,725,3.279,3.279,30.0687,-89.9288,2013,29.95374,-90.18115,,"Discount Zone, I-10, EXIT CLEARVIEW, New Orleans, LA",1,OK,done
63946,MINIT MART #600644,"I-80, EXIT 134",Joliet,IL,399,3.599,3.599,41.5188,-88.1499,2014,41.5106,-88.13588,,"MINIT MART #600644, I-80, EXIT 134, Joliet, IL",1,OK,done
63955,ROAD RANGER #266,"I-72, EXIT 82 & CR-10",New Berlin,IL,280,3.485666666666667,3.539,39.7261,-89.9143,2015,39.73842,-89.92404,,"ROAD RANGER #266, I-72, EXIT 82 & CR-10, New Berlin, IL",1,OK,done
63957,SUNMART FOOD STORE,SR-37,Bloomington,IN,375,3.499,3.499,39.1637,-86.5257,2016,39.22292,-86.54894,,"SUNMART FOOD STORE, SR-37, Bloomington, IN",1,OK,done
63959,SPEEDWAY #1429,SR-59 & SR-56,Warrenville,IL,293,3.5490000000000004,3.599,41.8209,-88.1857,2017,41.83236,-88.20174,,"SPEEDWAY #1429, SR-59 & SR-56, Warrenville, IL",1,OK,done
63960,BUTLER ONE STOP,"I-69, EXIT 329",Butler,IN,370,3.519,3.519,41.4274,-84.8721,2018,,,"ERROR: 403 Denied: {""message"":""Missing Authentication Token""}",,99,ERROR,not done
63962,7-ELEVEN #40505,"I-80, EXIT 90",Elkhart,IN,465,4.11566666,4.11566666,41.6916,-85.9627,2019,41.73159,-86.0043,,"7-ELEVEN #40505, I-80, EXIT 90, Elkhart, IN",1,OK,done
63964,LOVES TRAVEL STOPS #242,"I-35 & FISHER RD, EXIT 144",Von Ormy,TX,740,3.208,3.249,29.2803,-98.6556,2020,29.31038,-98.61657,,"LOVES TRAVEL STOPS #242, I-35 & FISHER RD, EXIT 144, Von Ormy, TX",1,OK,done
63965,GOOD TO GO #11,"I-65, EXIT 158",Frankfort,IN,375,3.549,3.549,40.281,-86.5212,2021,40.2576,-86.65055,,"GOOD TO GO #11, I-65, EXIT 158, Frankfort, IN",1,OK,done
63966,PHILS ONE STOP,"I-69, EXIT 309B",Fort Wayne,IN,370,3.67566666,3.67566666,41.0888,-85.1436,2022,41.12521,-85.13603,,"PHILS ONE STOP, I-69, EXIT 309B, Fort Wayne, IN",1,OK,done
63972,7-ELEVEN #40506,"I-80/I-90, MM 125 WB",Howe,IN,465,3.899,3.899,41.7228,-85.4255,2023,,,"ERROR: 403 Denied: {""message"":""Missing Authentication Token""}",,99,ERROR,not done
63977,CAREFREE FOOD MART,"I-64, EXIT 92",Leavenworth,IN,415,3.499,3.499,38.1997,-86.3454,2024,38.24334,-86.35932,,"CAREFREE FOOD MART, I-64, EXIT 92, Leavenworth, IN",1,OK,done
63978,Gallops,"I-80, EXIT 107",Middlebury,IN,370,3.549,3.549,41.6696,-85.7075,2025,41.74697,-85.69219,,"Gallops, I-80, EXIT 107, Middlebury, IN",1,OK,done
63978,Gallops,"I-80, EXIT 107",Middlebury,IN,370,3.549,3.549,39.2649,-87.1193,2026,41.74697,-85.69219,,"Gallops, I-80, EXIT 107, Middlebury, IN",1,OK,done
63979,Jaks Oil,US-90,Broussard,LA,730,3.049,3.049,30.1396,-91.954,2027,30.14918,-91.94954,,"Jaks Oil, US-90, Broussard, LA",1,OK,done
