OPIS Truckstop ID,Truckstop_Name,Address,City,State,Rack_ID,Average_Retail_Price,Highest_Price,city_lat,city_lon,row_index,Geocoded_Lat,Geocoded_Lon,Matched_Address,Query_Used,Attempt,Geocode_Status,Done
68396,TOOT N TOTUM #44,SR-287 E/CR-335 N,Amarillo,TX,585,3.04233333,3.04233333,35.1984,-101.8316,3718,35.20751,-101.81444,,"TOOT N TOTUM #44, SR-287 E/CR-335 N, Amarillo, TX",1,OK,done
68403,RUTTERS #16,"I-83, EXIT 10 & SR-214",York,PA,70,4.199,4.199,39.9651,-76.7315,3719,39.85615,-76.70739,,"RUTTERS #16, I-83, EXIT 10 & SR-214, York, PA",1,OK,done
68405,PILOT TRAVEL CENTER #1028,"I-45, EXIT 178/US-79 N",Buffalo,TX,765,3.549,3.549,31.46,-96.066,3720,31.44854,-96.07863,,"PILOT TRAVEL CENTER #1028, I-45, EXIT 178/US-79 N, Buffalo, TX",1,OK,done
68406,TOOT N TOTUM #114,US-385/US-54,Dalhart,TX,585,3.199,3.199,36.058,-102.5123,3721,36.05919,-102.52671,,"TOOT N TOTUM #114, US-385/US-54, Dalhart, TX",1,OK,done
68411,PAWNEE TRAVEL PLAZA,US-412 & SR-18,Pawnee,OK,560,3.044,3.044,36.3484,-96.8025,3722,36.33991,-96.80057,,"PAWNEE TRAVEL PLAZA, US-412 & SR-18, Pawnee, OK",1,OK,done
68416,STRIPES 7FLEET #42515,US-87 N,Lamesa,TX,710,3.099,3.099,32.7333,-101.9541,3723,32.73646,-101.94978,,"STRIPES 7FLEET #42515, US-87 N, Lamesa, TX",1,OK,done
68417,7-ELEVEN #42072,"I-20, EXIT 599/SR-281",Longview,TX,766,3.20733333,3.20733333,32.5193,-94.7622,3724,32.44544,-94.71904,,"7-ELEVEN #42072, I-20, EXIT 599/SR-281, Longview, TX",1,OK,done
68419,ROAD RANGERS #270,"I-35, EXIT 114/SR-462",Moore,TX,740,3.169,3.169,29.0574,-99.0069,3725,30.92938,-97.14117,,"ROAD RANGERS #270, I-35, EXIT 114/SR-462, Moore, TX",1,OK,done
68420,SHELBINA Phillips 66,US-36 & SR-15,Shelbina,MO,494,3.099,3.099,39.693,-92.0396,3726,39.68251,-92.0417,,"SHELBINA Phillips 66, US-36 & SR-15, Shelbina, MO",1,OK,done
68421,STRIPES,US-77,Refugio,TX,625,3.074,3.074,28.3074,-97.275,3727,28.30617,-97.27429,,"STRIPES, US-77, Refugio, TX",1,OK,done
68423,GOLDEN GATE TRUCKSTOP,"I-80, EXIT 106 & SR-398",Lovelock,NV,966,3.649,3.649,40.1787,-118.4775,3728,40.17946,-118.47294,,"GOLDEN GATE TRUCKSTOP, I-80, EXIT 106 & SR-398, Lovelock, NV",1,OK,done
68424,MAVERICK TRAVEL CENTER,"I-20, EXIT 386/US-281",Santo,TX,637,3.099,3.099,32.6056,-98.2138,3729,,,"ERROR: 403 Denied: {""message"":""Missing Authentication Token""}",,99,ERROR,not done
68428,STRIPES #40519,US-90/CR-1023,Uvalde,TX,740,3.359,3.359,29.2152,-99.7782,3730,29.20163,-99.80596,,"STRIPES #40519, US-90/CR-1023, Uvalde, TX",1,OK,done
68432,PAPA ROCK,US-79/SR-76,Clarksville,TN,460,3.199,3.199,36.5692,-87.3413,3731,36.54309,-87.37065,,"PAPA ROCK, US-79/SR-76, Clarksville, TN",1,OK,done
68434,Circle K #2741789,"I-30, EXIT 98 & US-270",Malvern,AR,695,3.439,3.439,34.3734,-92.8205,3732,34.36308,-92.813,,"Circle K #2741789, I-30, EXIT 98 & US-270, Malvern, AR",1,OK,done
68440,EXPRESS GAS,"I-40, EXIT 2A/US-51",Memphis,TN,435,2.979,2.979,35.1087,-89.9663,3733,35.1441,-90.04341,,"EXPRESS GAS, I-40, EXIT 2A/US-51, Memphis, TN",1,OK,done
68441,QUIKTRIP #1106,US-76,Anderson,SC,30,2.959,2.959,34.5211,-82.6478,3734,34.53248,-82.69766,,"QUIKTRIP #1106, US-76, Anderson, SC",1,OK,done
68444,Sunoco,US-30,Roebling,NJ,160,3.159,3.159,40.1167,-74.7775,3735,40.11269,-74.77025,,"Sunoco, US-30, Roebling, NJ",1,OK,done
68446,J J OIL #07,US-160,Ulysses,KS,525,3.399,3.399,37.5774,-101.3546,3736,37.56192,-101.19032,,"J J OIL #07, US-160, Ulysses, KS",1,OK,done
68447,JUMPIN JACKS 419,SR-161,Rockport,IN,487,3.999,3.999,37.8895,-87.0542,3737,37.89362,-87.10947,,"JUMPIN JACKS 419, SR-161, Rockport, IN",1,OK,done
68451,CASEYS #3439,US-63,Lime Springs,IA,433,3.56566666,3.56566666,43.4499,-92.2841,3738,43.44986,-92.29684,,"CASEYS #3439, US-63, Lime Springs, IA",1,OK,done
68453,Marathon,US-82/US-27,Cuthbert,GA,10,3.699,3.699,31.7713,-84.794,3739,31.77088,-84.78886,,"Marathon, US-82/US-27, Cuthbert, GA",1,OK,done
68458,SPEEDWAY #6278,"I-96, EXIT 16",Coopersville,MI,456,3.5490000000000004,3.599,43.0658,-85.9341,3740,43.05805,-85.95742,,"SPEEDWAY #6278, I-96, EXIT 16, Coopersville, MI",1,OK,done
68462,CHEVRON,SR-24 & SR-660,Houma,LA,623,3.099,3.099,29.58,-90.7059,3741,29.5643,-90.64757,,"CHEVRON, SR-24 & SR-660, Houma, LA",1,OK,done
68463,SPANISH LAKE TRUCK AND CASINO PLAZA,SR-182,New Iberia,LA,730,3.329,3.329,30.0049,-91.8202,3742,30.03038,-91.83107,,"SPANISH LAKE TRUCK AND CASINO PLAZA, SR-182, New Iberia, LA",1,OK,done
68465,LOVES TRAVEL STOP #470,"I-75, EXIT 451",Jasper,FL,10,3.32733333,3.32733333,30.5061,-82.954,3743,30.45206,-82.93312,,"LOVES TRAVEL STOP #470, I-75, EXIT 451, Jasper, FL",1,OK,done
68466,KWIK TRIP #462,SR-11 & SR-83,Burlington,WI,444,3.274,3.274,42.6744,-88.2721,3744,42.72335,-88.22353,,"KWIK TRIP #462, SR-11 & SR-83, Burlington, WI",1,OK,done
68468,SHELL,SR-193/SR-163 & CR-26,Theodore,AL,715,3.039,3.039,30.5408,-88.1885,3745,30.55474,-88.16869,,"SHELL, SR-193/SR-163 & CR-26, Theodore, AL",1,OK,done
68469,8 MILE STORE,"US-64/I-40, EXIT 127",Conway,AR,695,3.399,3.399,35.0753,-92.4692,3746,35.08596,-92.4171,,"8 MILE STORE, US-64/I-40, EXIT 127, Conway, AR",1,OK,done
68471,B LINE SHELL,SR-710,Jupiter,FL,140,3.95733333,3.95733333,26.92,-80.1128,3747,26.97075,-80.0955,,"B LINE SHELL, SR-710, Jupiter, FL",1,OK,done
68476,CREEK TRAVEL PLAZA,"I-65, EXIT 54",Atmore,AL,715,3.13566666,3.13566666,31.0927,-87.4762,3748,31.08672,-87.53842,,"CREEK TRAVEL PLAZA, I-65, EXIT 54, Atmore, AL",1,OK,done
68480,KUM & GO #0414,US-212/SR-265,Springdale,AR,645,3.14233333,3.14233333,36.1901,-94.1574,3749,36.18528,-94.12937,,"KUM & GO #0414, US-212/SR-265, Springdale, AR",1,OK,done
68482,PETRO-CANADA,HWY 91,Delta,BC,800,4.563371218333334,4.65745123,nan,nan,3750,49.14535,-122.93673,,"PETRO-CANADA, HWY 91, Delta, BC",1,OK,done
68493,FAST TRACK 427,"I-10, EXIT 225/US-19",Lamont,FL,20,3.739,3.739,30.3796,-83.8135,3751,30.41009,-83.90739,,"FAST TRACK 427, I-10, EXIT 225/US-19, Lamont, FL",1,OK,done
68494,LOVES TRAVEL STOPS #469,"I-85, EXIT 15 & US-1",South Hill,VA,180,3.949,3.949,36.7254,-78.1287,3752,36.72675,-78.12913,,"LOVES TRAVEL STOPS #469, I-85, EXIT 15 & US-1, South Hill, VA",1,OK,done
68497,JACKSONS FOOD STORE #30,"I-86, EXIT 61",Pocatello,ID,825,3.459,3.459,42.8724,-112.4647,3753,42.88242,-112.4329,,"JACKSONS FOOD STORE #30, I-86, EXIT 61, Pocatello, ID",1,OK,done
68499,DUBOIS TRAVEL STOP,I-15 & MAIN,Dubois,ID,825,4.299,4.299,44.1727,-112.2293,3754,44.176,-112.22985,,"DUBOIS TRAVEL STOP, I-15 & MAIN, Dubois, ID",1,OK,done
68506,WARRIOR RIDGE,US-22 & SR-3035,Ashland,PA,14,3.699,3.699,40.7811,-76.3451,3755,40.75203,-76.33504,,"WARRIOR RIDGE, US-22 & SR-3035, Ashland, PA",1,OK,done
68511,PWI #675,I-10/US-85/US-180 EXIT 155 & SR-227,Vado,NM,640,2.949,2.949,32.1278,-106.6571,3756,,,"ERROR: 403 Denied: {""message"":""Missing Authentication Token""}",,99,ERROR,not done
68512,BP,US-29/SR-154,Palmetto,GA,18,3.249,3.249,33.531,-84.6678,3757,33.53563,-84.66397,,"BP, US-29/SR-154, Palmetto, GA",1,OK,done
68518,CHEVRON,SR-243,Gordon,GA,85,3.359,3.359,32.8866,-83.3349,3758,32.9074,-83.29705,,"CHEVRON, SR-243, Gordon, GA",1,OK,done
68520,SPEED GAS,SR-56,Rosenhayn,NJ,150,3.459,3.459,39.4787,-75.138,3759,39.48295,-75.12809,,"SPEED GAS, SR-56, Rosenhayn, NJ",1,OK,done
68522,MINIT MART #600632,"I-474, EXIT 9 & SR-29",Pekin,IL,368,3.739,3.739,40.5678,-89.6251,3760,40.56938,-89.6453,,"MINIT MART #600632, I-474, EXIT 9 & SR-29, Pekin, IL",1,OK,done
68524,Coastal Fuel,US-421,Wilmington,NC,245,3.399,3.399,34.2099,-77.8866,3761,34.07562,-77.88755,,"Coastal Fuel, US-421, Wilmington, NC",1,OK,done
68531,CASEYS #2845,"SR-150, I-380, EXIT 41",Urbana,IA,380,3.449,3.449,42.2286,-91.8867,3762,42.232,-91.87286,,"CASEYS #2845, SR-150, I-380, EXIT 41, Urbana, IA",1,OK,done
68533,MACH ONE FOOD SHOP #17,US-45/US-50,Flora,IL,510,3.899,3.899,38.6688,-88.4758,3763,38.6039,-88.43828,,"MACH ONE FOOD SHOP #17, US-45/US-50, Flora, IL",1,OK,done
68534,BG FOOD MART,US-31,Bowling Green,KY,460,3.05733333,3.05733333,36.9716,-86.4378,3764,36.92255,-86.54374,,"BG FOOD MART, Bowling Green, KY",3,OK,done
68535,CASEYS #3295,SR-35 & SR-27,Prairie Du Chien,WI,420,3.499,3.499,nan,nan,3765,43.06755,-91.13647,,"CASEYS #3295, SR-35 & SR-27, Prairie Du Chien, WI",1,OK,done
68541,DUCK THRU #3,SR-11 & SR-561,Ahoskie,NC,130,3.56233333,3.56233333,36.2842,-76.9902,3766,36.36113,-77.01797,,"DUCK THRU #3, SR-11 & SR-561, Ahoskie, NC",1,OK,done
68542,EXCELL FUELS,SR-5,Buffalo,NY,38,3.999,3.999,42.9018,-78.8487,3767,42.77286,-78.83306,,"EXCELL FUELS, SR-5, Buffalo, NY",1,OK,done
68549,GOOD 2 GO #212,US-310/SR 789,Lovell,WY,780,3.657,3.657,44.8357,-108.3919,3768,44.83739,-108.40012,,"GOOD 2 GO #212, US-310/SR 789, Lovell, WY",1,OK,done
68552,HUCKS FOOD & FUEL #368,"US-41, EXIT 44/SR-281",Madisonville,KY,340,3.399,3.399,37.3409,-87.5034,3769,37.32894,-87.49855,,"HUCKS FOOD & FUEL #368, US-41, EXIT 44/SR-281, Madisonville, KY",1,OK,done
68556,MONICARLO FUEL STOP,US-61 & SR-54,Garyville,LA,623,3.199,3.199,30.0688,-90.6285,3770,30.07529,-90.62432,,"MONICARLO FUEL STOP, US-61 & SR-54, Garyville, LA",1,OK,done
68559,KUM & GO #0779,"I-35, EXIT 92 & US-136",Bethany,MO,320,2.95566666,2.95566666,40.2684,-94.0282,3771,40.26178,-94.01271,,"KUM & GO #0779, I-35, EXIT 92 & US-136, Bethany, MO",1,OK,done
68562,CHEVRON,SR-3235,Galliano,LA,725,3.499,3.499,29.447,-90.3096,3772,29.41804,-90.29367,,"CHEVRON, SR-3235, Galliano, LA",1,OK,done
68572,FOOD N FUN #17,US-90 & SR-83 & CR-605,New Iberia,LA,730,3.067,3.067,30.0049,-91.8202,3773,29.98078,-91.83978,,"FOOD N FUN #17, US-90 & SR-83 & CR-605, New Iberia, LA",1,OK,done
68574,SPRING STREET SERVICE STATION,US-1/US-9,Elizabeth,NJ,115,3.099,3.099,40.6658,-74.1913,3774,40.66036,-74.20758,,"SPRING STREET SERVICE STATION, US-1/US-9, Elizabeth, NJ",1,OK,done
68581,CHEVRON #308195,"I-82, EXIT 58/US-12 & SR-223",Granger,WA,977,4.414,4.499,46.3454,-120.1925,3775,46.33821,-120.1514,,"CHEVRON #308195, I-82, EXIT 58/US-12 & SR-223, Granger, WA",1,OK,done
68588,SHELL,"US-202, EXIT 16",Orange,MA,175,3.649,3.649,nan,nan,3776,42.58967,-72.30959,,"SHELL, US-202, EXIT 16, Orange, MA",1,OK,done
68592,Sprint Food #742,US-25/SR-121,North Augusta,SC,135,3.159,3.159,33.5214,-81.9547,3777,33.48943,-81.95113,,"Sprint Food #742, US-25/SR-121, North Augusta, SC",1,OK,done
68593,ONE9 #1285,"I-20, EXIT 386 & US-281",Santo,TX,575,2.924,2.924,32.6056,-98.2138,3778,32.61168,-98.10952,,"ONE9 #1285, I-20, EXIT 386 & US-281, Santo, TX",1,OK,done
68594,CIRCLE K #2723796,SR-S-8-33 & SR-S-8-119,Charleston,SC,42,3.199,3.199,32.8168,-79.9687,3779,32.91186,-79.97365,,"CIRCLE K #2723796, SR-S-8-33 & SR-S-8-119, Charleston, SC",1,OK,done
68595,SUPER LUCKY LOUIES,US-190/SR-1,Port Allen,LA,600,3.03233333,3.03233333,30.4456,-91.2098,3780,30.50626,-91.21411,,"SUPER LUCKY LOUIES, Port Allen, LA",3,OK,done
68596,FLASH MARKET SHELL,US-63,Koshkonong,MO,418,3.499,3.499,36.5976,-91.646,3781,36.53724,-91.74657,,"FLASH MARKET SHELL, US-63, Koshkonong, MO",1,OK,done
68598,7-ELEVEN #41032,US-84 & US-259,Mount Enterprise,TX,618,3.349,3.349,31.9113,-94.6826,3782,31.91749,-94.68339,,"7-ELEVEN #41032, US-84 & US-259, Mount Enterprise, TX",1,OK,done
68602,NEW DIXIE MART #19,"I-95, EXIT150",Whitakers,NC,205,3.339,3.339,36.1057,-77.7131,3783,36.12831,-77.7969,,"NEW DIXIE MART #19, I-95, EXIT150, Whitakers, NC",1,OK,done
68606,SAMS MART #95,SR-49,Harrisburg,NC,46,3.799,3.799,35.3125,-80.6485,3784,35.32159,-80.65594,,"SAMS MART #95, SR-49, Harrisburg, NC",1,OK,done
68613,SHEETZ #236,SR-441 & SR-772,Marietta,PA,70,3.389,3.389,40.0574,-76.5515,3785,40.05613,-76.55715,,"SHEETZ #236, SR-441 & SR-772, Marietta, PA",1,OK,done
68618,MINER TOWNE MART,206 R-11,Shullsburg,WI,335,3.399,3.399,42.5733,-90.2348,3786,42.57144,-90.24426,,"MINER TOWNE MART, 206 R-11, Shullsburg, WI",1,OK,done
68621,CIRCLE K #2723367,"I-77, EXIT 8 & SR-148",Fancy Gap,VA,65,3.29066666,3.29066666,36.6771,-80.6997,3787,36.67846,-80.69943,,"CIRCLE K #2723367, I-77, EXIT 8 & SR-148, Fancy Gap, VA",1,OK,done
68622,PILOT #474,"I-79, EXIT 67 & SR-19",Sutton,WV,44,3.86566666,3.86566666,38.6663,-80.7116,3788,38.7004,-80.66532,,"PILOT #474, I-79, EXIT 67 & SR-19, Sutton, WV",1,OK,done
68623,FLYING J TRAVEL PLAZA #304,"I-469, EXIT 19 & US-30",New Haven,IN,370,3.859,3.859,41.0676,-85.0174,3789,41.0597,-84.98034,,"FLYING J TRAVEL PLAZA #304, I-469, EXIT 19 & US-30, New Haven, IN",1,OK,done
68624,PILOT #586,"I-10, EXIT 69 & SR-63",Moss Point,MS,715,3.459,3.459,30.4241,-88.5289,3790,30.44061,-88.53267,,"PILOT #586, I-10, EXIT 69 & SR-63, Moss Point, MS",1,OK,done
68625,FLYING J #470 HUDSON,"I-94, EXIT 10 & US-65",Roberts,WI,450,3.559,3.559,44.9733,-92.5505,3791,44.96009,-92.56445,,"FLYING J #470 HUDSON, I-94, EXIT 10 & US-65, Roberts, WI",1,OK,done
68626,BECKS EXPRESS MART #14,SR-26,Princeton,IL,270,3.249,3.249,41.3807,-89.464,3792,41.37164,-89.46444,,"BECKS EXPRESS MART #14, SR-26, Princeton, IL",1,OK,done
68630,DOWNSTREAM Q STORE,US-166/US-400,Joplin,MO,277,3.199,3.199,37.0757,-94.5018,3793,37.00159,-94.61679,,"DOWNSTREAM Q STORE, US-166/US-400, Joplin, MO",1,OK,done
68634,PETRO-CANADA,"HWY-111, EXIT 3",Dartmouth,NS,100,3.908369545,3.93248441,nan,nan,3794,44.69144,-63.58512,,"PETRO-CANADA, HWY-111, EXIT 3, Dartmouth, NS",1,OK,done
68639,PETRO-CANADA,QEW-2,Calgary,AB,50,3.8444811975,4.07143281,nan,nan,3795,51.04532,-114.06301,,"PETRO-CANADA, QEW-2, Calgary, AB",1,OK,done
68641,PETRO-CANADA,HWY-37,Kitwanga,BC,850,4.56334147,4.63022827,nan,nan,3796,55.10381,-128.05341,,"PETRO-CANADA, HWY-37, Kitwanga, BC",1,OK,done
68642,EXXON SANDY RIDGE MART,"I-40/US-421, EXIT 208",Colfax,NC,65,3.099,3.099,nan,nan,3797,,,"ERROR: 403 Denied: {""message"":""Missing Authentication Token""}",,99,ERROR,not done
68643,SHELL,"I-95, EXIT 58 & US-13",Wade,NC,63,3.199,3.199,35.1635,-78.737,3798,35.1303,-78.74683,,"SHELL, I-95, EXIT 58 & US-13, Wade, NC",1,OK,done
68644,SUPERPUMPER #32,US-2,Minot,ND,452,3.599,3.599,48.2375,-101.278,3799,48.22499,-101.29533,,"SUPERPUMPER #32, US-2, Minot, ND",1,OK,done
68650,MARATHON,"I-75, EXIT 8",Cincinnati,OH,300,3.899,3.899,39.1413,-84.506,3800,39.18995,-84.48065,,"MARATHON, I-75, EXIT 8, Cincinnati, OH",1,OK,done
68653,KWIK TRIP #679,"I-43, EXIT 128 & SR-42",Sheboygan,WI,444,3.21566666,3.21566666,43.7403,-87.7316,3801,43.67443,-87.75796,,"KWIK TRIP #679, I-43, EXIT 128 & SR-42, Sheboygan, WI",1,OK,done
68656,TA Express Williston,US-2 & US-85,Williston,ND,807,3.44733333,3.44733333,48.1814,-103.6364,3802,48.15435,-103.62319,,"TA Express Williston, US-2 & US-85, Williston, ND",1,OK,done
68659,KWIK TRIP #659,"US-52, EXIT 56 & CR-22",Rochester,MN,515,3.549,3.549,44.0154,-92.478,3803,44.00218,-92.48353,,"KWIK TRIP #659, US-52, EXIT 56 & CR-22, Rochester, MN",1,OK,done
68663,LOVES TRAVEL STOP #474,US-85/US-2 & CR-6,Williston,ND,273,3.519,3.519,48.1814,-103.6364,3804,48.24344,-103.62113,,"LOVES TRAVEL STOP #474, US-85/US-2 & CR-6, Williston, ND",1,OK,done
68665,BIG D 14,"I-90, EXIT 46/US-14/SR-79",Piedmont,SD,506,3.13733333,3.13733333,44.2136,-103.3717,3805,44.22198,-103.37454,,"BIG D 14, I-90, EXIT 46/US-14/SR-79, Piedmont, SD",1,OK,done
68671,CASEYS #2969,US-81 & RD F,Fairmont,NE,350,3.28233333,3.28233333,40.6343,-97.5991,3806,40.62642,-97.59483,,"CASEYS #2969, US-81 & RD F, Fairmont, NE",1,OK,done
68672,24 NORTH MOBIL,"I-495, EXIT 7A & SR-24, EXIT 14B",Bridgewater,MA,175,3.699,3.699,nan,nan,3807,41.97918,-70.99661,,"24 NORTH MOBIL, I-495, EXIT 7A & SR-24, EXIT 14B, Bridgewater, MA",1,OK,done
68674,TEXACO,US-290 & SR-696,Elgin,TX,595,3.099,3.099,30.3526,-97.3883,3808,30.34341,-97.37923,,"TEXACO, US-290 & SR-696, Elgin, TX",1,OK,done
68684,Rebecca Plantation Truck Plaza,"US-90, EXIT 200 & SR-311",Schriever,LA,623,2.999,2.999,29.7333,-90.831,3809,29.67889,-90.81368,,"Rebecca Plantation Truck Plaza, US-90, EXIT 200 & SR-311, Schriever, LA",1,OK,done
68685,QUICK FUEL #2403,"I-29/I-35/SR-71, EXIT 5B",Kansas City,MO,400,3.344,3.344,39.1238,-94.5541,3810,38.93875,-94.26528,,"QUICK FUEL #2403, I-29/I-35/SR-71, EXIT 5B, Kansas City, MO",1,OK,done
68689,CHEVRON,"I-10, EXIT 59 & SR-395",Roanoke,LA,690,3.609,3.609,30.2356,-92.7481,3811,30.2505,-92.74113,,"CHEVRON, I-10, EXIT 59 & SR-395, Roanoke, LA",1,OK,done
68690,MARATHON,US-30 & SR-30,Mansfield,OH,315,3.499,3.499,40.7656,-82.5275,3812,40.77939,-82.65445,,"MARATHON, US-30 & SR-30, Mansfield, OH",1,OK,done
68691,BYRNE DAIRY #43,"I-81, EXIT 36 & SR-13",Pulaski,NY,220,4.099,4.099,43.5653,-76.1268,3813,43.55387,-76.11283,,"BYRNE DAIRY #43, I-81, EXIT 36 & SR-13, Pulaski, NY",1,OK,done
68692,DANDY MINI MART #57,SR-14,Horseheads,NY,190,3.899,3.899,nan,nan,3814,42.18929,-76.83377,,"DANDY MINI MART #57, SR-14, Horseheads, NY",1,OK,done
68693,SUPER STOPS,SR-70 & SR-308,Belle Rose,LA,623,3.499,3.499,30.0422,-91.0497,3815,30.00031,-91.05254,,"SUPER STOPS, SR-70 & SR-308, Belle Rose, LA",1,OK,done
68696,STRIPES #40800,FM-351 & US-181,Beeville,TX,625,3.01566666,3.01566666,28.4053,-97.749,3816,28.42248,-97.76053,,"STRIPES #40800, FM-351 & US-181, Beeville, TX",1,OK,done
68697,STRIPES #40915,"I-35, EXIT 8 & SR-20 & FM-1472",Laredo,TX,693,2.979,2.979,27.5625,-99.4874,3817,27.51244,-99.50471,,"STRIPES #40915, I-35, EXIT 8 & SR-20 & FM-1472, Laredo, TX",1,OK,done
68698,GAS N WASH,"I-80, EXIT 145 & SR-84",Mokena,IL,365,3.499,3.499,41.5327,-87.8781,3818,41.55278,-87.86068,,"GAS N WASH, I-80, EXIT 145 & SR-84, Mokena, IL",1,OK,done
68699,ORGANIC CONNECTION MOBIL,SR-997,Homestead,FL,95,3.344,3.344,25.4665,-80.4472,3819,25.52844,-80.47779,,"ORGANIC CONNECTION MOBIL, SR-997, Homestead, FL",1,OK,done
68701,SPEEDWAY #1421,US-45 & CR-74,Frankfort,IL,293,3.3565,3.399,41.4892,-87.8363,3820,41.50371,-87.85201,,"SPEEDWAY #1421, US-45 & CR-74, Frankfort, IL",1,OK,done
68702,QUIKTRIP #1120,"I-85, EXIT 90 & SR-105",Gaffney,SC,210,3.19066666,3.19066666,35.0743,-81.6552,3821,35.08126,-81.70876,,"QUIKTRIP #1120, I-85, EXIT 90 & SR-105, Gaffney, SC",1,OK,done
68708,LOVES TRAVEL STOP #476,"I-80, EXIT 292 & SR-130",Davenport,IA,270,3.86233333,3.86233333,41.5565,-90.6053,3822,41.60474,-90.6237,,"LOVES TRAVEL STOP #476, I-80, EXIT 292 & SR-130, Davenport, IA",1,OK,done
68716,ALLTOWN MARKETS #833,I-95 EXIT 41,Milford,CT,100,3.599,3.599,nan,nan,3823,41.21262,-73.01212,,"ALLTOWN MARKETS #833, I-95 EXIT 41, Milford, CT",1,OK,done
68722,Pilot #140,US-40/US-191,Roosevelt,UT,835,3.759,3.759,40.2924,-110.0093,3824,40.29256,-109.99249,,"Pilot #140, US-40/US-191, Roosevelt, UT",1,OK,done
68730,KENT KWIK #315,SR-158 & FM-1788,Midland,TX,710,3.43733333,3.43733333,32.0243,-102.1147,3825,32.04653,-102.27534,,"KENT KWIK #315, SR-158 & FM-1788, Midland, TX",1,OK,done
68733,PETRO-CANADA,TCH/HWY 11,Cochrane,ON,460,3.7049765975,3.70920637,nan,nan,3826,49.0146,-81.03052,,"PETRO-CANADA, TCH/HWY 11, Cochrane, ON",1,OK,done
68734,LOVES TRAVEL STOP #478,"I-15, EXIT 113",Idaho Falls,ID,825,3.75566666,3.75566666,43.4871,-112.0362,3827,43.44135,-112.12282,,"LOVES TRAVEL STOP #478, I-15, EXIT 113, Idaho Falls, ID",1,OK,done
68737,KWIK TRIP #691,"I-39, EXIT 161",Stevens Point,WI,395,3.559,3.559,44.5241,-89.5507,3828,44.50412,-89.5671,,"KWIK TRIP #691, I-39, EXIT 161, Stevens Point, WI",1,OK,done
68738,CASEYS #2316,US-136/SR-5 & SR-5,Unionville,MO,320,3.214,3.214,40.4757,-93.0044,3829,40.47706,-93.01071,,"CASEYS #2316, US-136/SR-5 & SR-5, Unionville, MO",1,OK,done
68740,Certified Oil #400352,US-20 & SR-510 & SR-101,Clyde,OH,550,3.379,3.379,41.3044,-82.9781,3830,41.30023,-82.97472,,"Certified Oil #400352, US-20 & SR-510 & SR-101, Clyde, OH",1,OK,done
68741,COUNTY LINE TRUCK STOP,SR-22,Dickinson,ND,273,3.53233333,3.53233333,46.8918,-102.7925,3831,46.97554,-102.79076,,"COUNTY LINE TRUCK STOP, SR-22, Dickinson, ND",1,OK,done
68742,ARTESIA #401,SR-82 & SR-285,Artesia,NM,593,3.439,3.439,32.8497,-104.4268,3832,32.84606,-104.39755,,"ARTESIA #401, SR-82 & SR-285, Artesia, NM",1,OK,done
68796,MR FUEL #731,"I-70, EXIT 123 & SR-3",Spiceland,IN,375,3.699,3.699,39.8433,-85.426,3833,39.85025,-85.41801,,"MR FUEL #731, I-70, EXIT 123 & SR-3, Spiceland, IN",1,OK,done
68797,SPEEDWAY #1412,SR-43,Frankfort,IL,293,3.359,3.359,41.4892,-87.8363,3834,41.50658,-87.79114,,"SPEEDWAY #1412, SR-43, Frankfort, IL",1,OK,done
68798,PILOT DEALER #1179,SR-189,Nogales,AZ,980,4.249,4.249,31.3624,-110.9336,3835,31.35345,-110.96024,,"PILOT DEALER #1179, SR-189, Nogales, AZ",1,OK,done
68799,SHELL FOOD MART # 25,"I-20, EXIT 77 & SR-13",Morton,MS,705,3.199,3.199,32.3455,-89.6572,3836,32.35012,-89.6708,,"SHELL FOOD MART # 25, I-20, EXIT 77 & SR-13, Morton, MS",1,OK,done
68801,7-ELEVEN #40574,US-281,Blanco,TX,740,3.399,3.399,30.0987,-98.4169,3837,30.09451,-98.42382,,"7-ELEVEN #40574, US-281, Blanco, TX",1,OK,done
68803,SHELL,"I-45, EXIT 152",Madisonville,TX,670,3.18233333,3.18233333,30.9538,-95.9091,3838,30.95926,-95.87627,,"SHELL, I-45, EXIT 152, Madisonville, TX",1,OK,done
68806,SHELL,US-90,Westwego,LA,725,3.06566666,3.06566666,29.9058,-90.1434,3839,29.90953,-90.20372,,"SHELL, US-90, Westwego, LA",1,OK,done
68808,SPEEDWAY #4574,US-701,Loris,SC,245,3.269,3.269,34.0578,-78.8876,3840,34.06408,-78.88144,,"SPEEDWAY #4574, US-701, Loris, SC",1,OK,done
68813,SPEEDWAY #8741,"I-96, EXIT 86 & SR-100",Eagle,MI,406,3.789,3.789,42.8098,-84.7909,3841,42.79867,-84.73989,,"SPEEDWAY #8741, I-96 EXIT 86, Eagle, MI",2,OK,done
68814,TA HOLBROOK,"I-40/US-180, EXIT 283",Holbrook,AZ,580,3.65566666,3.65566666,34.9044,-110.1672,3842,34.90015,-110.15865,,"TA HOLBROOK, I-40/US-180, EXIT 283, Holbrook, AZ",1,OK,done
68815,LOVES TRAVEL STOP #471,"I-35, EXIT 127 & FM-471",Natalia,TX,740,3.246,3.289,29.1876,-98.8524,3843,29.1848,-98.84651,,"LOVES TRAVEL STOP #471, I-35, EXIT 127 & FM-471, Natalia, TX",1,OK,done
68821,Joe's Kwik Mart #473,CR-139,Lancaster,NY,38,3.729,3.799,nan,nan,3844,42.92292,-78.62187,,"Joe's Kwik Mart #473, CR-139, Lancaster, NY",1,OK,done
68822,CASEYS #3919,"I-35/US-50, EXIT 148 & SR-131",Lebo,KS,400,3.089,3.089,38.4156,-95.8622,3845,38.41299,-95.85767,,"CASEYS #3919, I-35/US-50, EXIT 148 & SR-131, Lebo, KS",1,OK,done
68823,FRIENDS FOOD MART,SR-13,Mansfield,OH,249,4.199,4.199,40.7656,-82.5275,3846,40.77087,-82.66969,,"FRIENDS FOOD MART, SR-13, Mansfield, OH",1,OK,done
68824,EXPRESSWAY,SR-60 & CR-9,Heron Lake,MN,425,3.299,3.299,43.7981,-95.3197,3847,43.79822,-95.32417,,"EXPRESSWAY, SR-60 & CR-9, Heron Lake, MN",1,OK,done
68825,ALLTOWN MARKETS #832,"I-95, EXIT 40",Milford,CT,100,3.599,3.599,nan,nan,3848,41.21262,-73.01212,,"ALLTOWN MARKETS #832, I-95, EXIT 40, Milford, CT",1,OK,done
68826,HIGHWAY SERVICE,US-44,Seekonk,MA,175,3.319,3.319,nan,nan,3849,41.82802,-71.32212,,"HIGHWAY SERVICE, US-44, Seekonk, MA",1,OK,done
68828,CIRCLE K #2721540,US-78 & SR-15,New Albany,MS,435,3.759,3.759,34.4909,-89.0201,3850,34.45536,-89.01369,,"CIRCLE K #2721540, US-78 & SR-15, New Albany, MS",1,OK,done
68831,KWIK TRIP #896,SR-65 & CR-J,Minneapolis,MN,451,3.599,3.599,44.9635,-93.2678,3851,44.9934,-93.24929,,"KWIK TRIP #896, SR-65 & CR-J, Minneapolis, MN",1,OK,done
68835,SPEEDWAY #7954,US-258/SR-24,Richlands,NC,205,3.324,3.324,34.9003,-77.5427,3852,34.91507,-77.59649,,"SPEEDWAY #7954, US-258/SR-24, Richlands, NC",1,OK,done
68836,Corner Market #160,US-60,Pampa,TX,585,3.399,3.399,35.5479,-100.9651,3853,35.53237,-100.958,,"Corner Market #160, US-60, Pampa, TX",1,OK,done
68839,CHOCTAW TRAVEL PLAZA #641,US-69/SR-43,Stringtown,OK,560,3.159,3.159,34.4701,-96.0549,3854,34.46955,-96.05264,,"CHOCTAW TRAVEL PLAZA #641, US-69/SR-43, Stringtown, OK",1,OK,done
68840,LOVES TRAVEL STOP #475,"I-20/US-84, EXIT 242 & FM-142",Sweetwater,TX,575,3.189,3.189,32.4692,-100.4092,3855,32.45058,-100.44118,,"LOVES TRAVEL STOP #475, I-20/US-84, EXIT 242 & FM-142, Sweetwater, TX",1,OK,done
68841,PILOT TRAVEL CENTER #575,"I-95, EXIT 1",Saint Marys,GA,75,3.599,3.599,nan,nan,3856,30.75962,-81.65592,,"PILOT TRAVEL CENTER #575, I-95, EXIT 1, Saint Marys, GA",1,OK,done
68843,PILOT #467,"I-37, EXIT 125",San Antonio,TX,740,3.399,3.399,29.4632,-98.5238,3857,29.57684,-98.2491,,"PILOT #467, I-37, EXIT 125, San Antonio, TX",1,OK,done
68844,FLYING J #553,"I-10, EXIT 259",Fort Stockton,TX,710,3.659,3.659,30.8926,-102.8842,3858,30.90698,-102.8717,,"FLYING J #553, I-10, EXIT 259, Fort Stockton, TX",1,OK,done
68845,PILOT TRAVEL CENTER #4651,"I-95, EXIT 4",Skippers,VA,180,3.799,3.799,nan,nan,3859,36.60667,-77.56103,,"PILOT TRAVEL CENTER #4651, I-95, EXIT 4, Skippers, VA",1,OK,done
68847,CIRCLE K #2741553,US-190/US-183 & US-281,Lampasas,TX,595,2.759,2.759,31.064,-98.1824,3860,31.06646,-98.18335,,"CIRCLE K #2741553, US-190/US-183 & US-281, Lampasas, TX",1,OK,done
68848,CIRCLE K #2741328,"I-35, EXIT 328 & FM-2063",Hewitt,TX,765,2.86566666,2.86566666,31.452,-97.196,3861,31.46447,-97.191,,"CIRCLE K #2741328, I-35, EXIT 328 & FM-2063, Hewitt, TX",1,OK,done
68849,Circle K #2706632,US-80/SR-8 & CR-480,Selma,AL,720,3.699,3.699,32.4166,-87.0336,3862,32.4311,-87.0329,,"Circle K #2706632, US-80/SR-8 & CR-480, Selma, AL",1,OK,done
68850,SPRINT MART #67,US-84/US-425,Vidalia,LA,730,3.08233333,3.08233333,31.5668,-91.4404,3863,31.57572,-91.46803,,"SPRINT MART #67, US-84/US-425, Vidalia, LA",1,OK,done
68855,FLYING J #861,"TCH 1, EXIT 168",Hope,BC,800,5.125365753333333,5.13260385,nan,nan,3864,49.36525,-121.48237,,"FLYING J #861, TCH 1, EXIT 168, Hope, BC",1,OK,done
68856,KWIK N EZ #1,"I-40, EXIT 265",Checotah,OK,645,2.909,2.909,35.482,-95.5224,3865,35.4787,-95.52103,,"KWIK N EZ #1, I-40, EXIT 265, Checotah, OK",1,OK,done
68860,PETRO STOP #394,"I-35, EXIT 101 & FM-140",Pearsall,TX,740,3.53566666,3.53566666,28.8915,-99.0975,3866,28.89198,-99.09531,,"PETRO STOP #394, I-35, EXIT 101 & FM-140, Pearsall, TX",1,OK,done
68861,KWIK TRIP #733,SR-76/SR-44,Caledonia,MN,515,3.49066666,3.49066666,43.6344,-91.5009,3867,43.62859,-91.50648,,"KWIK TRIP #733, SR-76/SR-44, Caledonia, MN",1,OK,done
68864,QUICK FUEL #3190,"I-75, EXIT 68",Dayton,OH,317,3.67733333,3.67733333,39.7805,-84.2003,3868,39.76253,-84.20049,,"QUICK FUEL #3190, I-75, EXIT 68, Dayton, OH",1,OK,done
68865,QUICK FUEL #3192,"I-275, EXIT 42B & SR-747",Cincinnati,OH,300,3.25233333,3.25233333,39.1413,-84.506,3869,39.29465,-84.46266,,"QUICK FUEL #3192, I-275, EXIT 42B & SR-747, Cincinnati, OH",1,OK,done
68868,PUMP & PANTRY #14,SR-92/SR-2,Broken Bow,NE,330,3.299,3.299,41.4051,-99.6408,3870,41.40194,-99.61933,,"PUMP & PANTRY #14, SR-92/SR-2, Broken Bow, NE",1,OK,done
68869,PUMP & PANTRY #4,SR-2 & SR-11,Cairo,NE,330,3.32733333,3.32733333,41.0046,-98.6007,3871,41.00172,-98.60798,,"PUMP & PANTRY #4, SR-2 & SR-11, Cairo, NE",1,OK,done
68873,ONVO TRAVEL PLAZA - MOUNTAIN COBB,"I-84, EXIT 8",Lake Ariel,PA,200,3.58566666,3.58566666,nan,nan,3872,41.47905,-75.46192,,"ONVO TRAVEL PLAZA - MOUNTAIN COBB, I-84, EXIT 8, Lake Ariel, PA",1,OK,done
68874,QUIKTRIP #492,"I-10, EXIT 114 & SR-85",Buckeye,AZ,930,3.369,3.369,33.4314,-112.6429,3873,33.42947,-112.59145,,"QUIKTRIP #492, I-10, EXIT 114 & SR-85, Buckeye, AZ",1,OK,done
68875,SHEETZ #512,"I-40, EXIT 203 & SR-66",Kernersville,NC,65,2.844,2.844,36.1065,-80.0842,3874,36.12108,-80.06932,,"SHEETZ #512, I-40, EXIT 203 & SR-66, Kernersville, NC",1,OK,done
68882,CAPITAL FUELS MYTON,US-40/191,Myton,UT,835,3.50233333,3.50233333,40.1933,-110.0624,3875,40.183,-110.09593,,"CAPITAL FUELS MYTON, US-40/191, Myton, UT",1,OK,done
68883,CBH TRAVEL CENTER,US-85,Belle Fourche,SD,506,3.299,3.299,44.664,-103.8564,3876,44.68306,-103.8512,,"CBH TRAVEL CENTER, US-85, Belle Fourche, SD",1,OK,done
68885,FLYING J #488,"I-35, EXIT 69",Cotulla,TX,693,3.599,3.599,28.4364,-99.2367,3877,28.45212,-99.23778,,"FLYING J #488, I-35, EXIT 69, Cotulla, TX",1,OK,done
68886,BEBO'S,SR-38,Kentwood,LA,600,3.01566666,3.01566666,30.9339,-90.5153,3878,30.93673,-90.51935,,"BEBO'S, SR-38, Kentwood, LA",1,OK,done
68888,Express Lane,"US-80, EXIT 33 & US-6/SR-78",Annawan,IL,270,3.349,3.399,41.3958,-89.8882,3879,41.39704,-89.90494,,"Express Lane, US-80, EXIT 33 & US-6/SR-78, Annawan, IL",1,OK,done
68890,Circle K #2741795,"I-430, EXIT 12 & SR-100",Maumelle,AR,695,3.18566666,3.18566666,34.8522,-92.4,3880,34.85601,-92.40211,,"Circle K #2741795, I-430, EXIT 12 & SR-100, Maumelle, AR",1,OK,done
68891,LOVES TRAVEL STOP #480,I-40 EXIT 364,Lenoir City,TN,405,3.439,3.439,35.8111,-84.2818,3881,35.87306,-84.32373,,"LOVES TRAVEL STOP #480, I-40 EXIT 364, Lenoir City, TN",1,OK,done
68892,OLIVE EXXON,US-31,Holland,MI,371,3.799,3.799,42.7677,-86.0984,3882,42.73742,-86.06746,,"OLIVE EXXON, US-31, Holland, MI",1,OK,done
68893,J & H FAMILY STORE,"I-96, EXIT 52 & SR-50",Lowell,MI,371,3.789,3.789,42.9351,-85.3457,3883,42.93481,-85.3361,,"J & H FAMILY STORE, Lowell, MI",3,OK,done
68894,ROCKFORD MOBIL MART,"US-131, EXIT 97",Rockford,MI,344,3.449,3.599,43.1267,-85.5582,3884,43.17927,-85.55003,,"ROCKFORD MOBIL MART, US-131, EXIT 97, Rockford, MI",1,OK,done
68895,J & H FAMILY STORE #103,"I-196, EXIT 62",Hudsonville,MI,344,3.399,3.399,42.8632,-85.8627,3885,42.84772,-85.86918,,"J & H FAMILY STORE #103, I-196, EXIT 62, Hudsonville, MI",1,OK,done
68897,TA CARYVILLE,"I-75, EXIT 141",Pioneer,TN,405,3.00733333,3.00733333,nan,nan,3886,36.3801,-84.24801,,"I-75 EXIT 141, Pioneer, TN",4,OK,done
68899,XTRAMART,SR-9,Westborough,MA,175,3.649,3.649,nan,nan,3887,42.28489,-71.6202,,"XTRAMART, SR-9, Westborough, MA",1,OK,done
68900,DUCK THRU #41,US-17/SR-37,Hertford,NC,130,3.599,3.599,36.1813,-76.4673,3888,36.18494,-76.45789,,"DUCK THRU #41, US-17/SR-37, Hertford, NC",1,OK,done
68901,SPEEDWAY #1224,"SR-741 & I-71, EXIT 25",Mason,OH,300,3.159,3.159,39.3571,-84.3023,3889,39.43682,-84.27979,,"SPEEDWAY #1224, SR-741 & I-71, EXIT 25, Mason, OH",1,OK,done
68902,CASEYS #3062,SR-281 & SR-160,Medicine Lodge,KS,357,3.114,3.114,37.2851,-98.5812,3890,37.27585,-98.62411,,"CASEYS #3062, SR-281 & SR-160, Medicine Lodge, KS",1,OK,done
68903,BIG D KWIK SHOP,SR-59,Gillette,WY,836,3.379,3.379,44.2752,-105.4982,3891,44.29582,-105.52943,,"BIG D KWIK SHOP, SR-59, Gillette, WY",1,OK,done
68907,QUIKTRIP #943,"I-35E, EXIT 405 & US-77",Waxahachie,TX,630,2.89566666,2.89566666,32.4035,-96.8446,3892,32.4062,-96.84296,,"QUIKTRIP #943, I-35E, EXIT 405 & US-77, Waxahachie, TX",1,OK,done
68908,SPEEDWAY #1804,"I-270, EXIT 32 & I-71, EXIT 116",Columbus,OH,315,3.69233333,3.69233333,39.9862,-82.9855,3893,39.87433,-82.92708,,"SPEEDWAY #1804, I-270, EXIT 32 & I-71, EXIT 116, Columbus, OH",1,OK,done
68912,Chisholm Corner #13,"SR-19 & I-35, EXIT 72",Pauls Valley,OK,569,3.089,3.089,34.7231,-97.2281,3894,34.7478,-97.27375,,"Chisholm Corner #13, SR-19 & I-35, EXIT 72, Pauls Valley, OK",1,OK,done
68913,CASEYS #3263,"I-90, EXIT 43 & SR-60",Worthington,MN,530,3.14233333,3.14233333,43.6281,-95.599,3895,43.63781,-95.598,,"CASEYS #3263, I-90, EXIT 43 & SR-60, Worthington, MN",1,OK,done
68915,PUMP & PANTRY #53,US-20,Jackson,NE,527,3.41233333,3.41233333,42.4507,-96.5787,3896,42.44791,-96.57137,,"PUMP & PANTRY #53, US-20, Jackson, NE",1,OK,done
68916,YESWAY #1075,"I-20, EXIT 278",Tye,TX,575,2.87566666,2.87566666,32.4522,-99.8665,3897,32.45955,-99.8684,,"YESWAY #1075, I-20, EXIT 278, Tye, TX",1,OK,done
68919,GULF MART 5150,"I-90 E, MM 117",Natick,MA,34,4.06566666,4.06566666,nan,nan,3898,42.27568,-71.3127,,"GULF MART 5150, I-90 E, MM 117, Natick, MA",1,OK,done
68921,GAS N GO,US-341/SR-7 & SR-96/SR-49,Fort Valley,GA,85,3.18233333,3.18233333,32.552,-83.8817,3899,32.58735,-83.9293,,"GAS N GO, US-341/SR-7 & SR-96/SR-49, Fort Valley, GA",1,OK,done
68923,STRIPES 7FLEET #42509,US-67 & SR-137,Big Lake,TX,612,3.599,3.599,31.1941,-101.4534,3900,31.19006,-101.46751,,"STRIPES 7FLEET #42509, US-67 & SR-137, Big Lake, TX",1,OK,done
68924,KWIK TRIP #326,"I-90, EXIT 171 & US-51 & US-14",Janesville,WI,420,3.374,3.374,42.6854,-89.0135,3901,42.67789,-89.03175,,"KWIK TRIP #326, I-90, EXIT 171 & US-51 & US-14, Janesville, WI",1,OK,done
68925,KWIK TRIP #874,"I-35, EXIT 132 & US-8",Chisago City,MN,448,3.32733333,3.32733333,45.3473,-92.9116,3902,45.37529,-92.8824,,"KWIK TRIP #874, I-35, EXIT 132 & US-8, Chisago City, MN",1,OK,done
68926,KWIK TRIP #872,SR-26,Jefferson,WI,420,3.38233333,3.38233333,43.0044,-88.8084,3903,42.99009,-88.80761,,"KWIK TRIP #872, SR-26, Jefferson, WI",1,OK,done
68927,MARATHON,US-19 & SR-80,Rosedale,VA,185,3.749,3.749,nan,nan,3904,36.94458,-81.95993,,"MARATHON, US-19 & SR-80, Rosedale, VA",1,OK,done
68928,PILOT TRAVEL CENTER #475,"I-40, EXIT 196 & SR-41",Moriarty,NM,580,3.244,3.244,35.0034,-106.0444,3905,35.00493,-105.99483,,"PILOT TRAVEL CENTER #475, I-40, EXIT 196 & SR-41, Moriarty, NM",1,OK,done
68929,SPEEDWAY #6953,"I-74/US-311, EXIT 65",High Point,NC,65,3.529,3.529,35.991,-79.9937,3906,35.92044,-80.00061,,"SPEEDWAY #6953, I-74/US-311, EXIT 65, High Point, NC",1,OK,done
68930,PILOT #4569,"I-95, EXIT 5",Hardeeville,SC,195,3.37566666,3.37566666,32.2949,-81.0321,3907,32.27317,-81.08079,,"PILOT #4569, I-95, EXIT 5, Hardeeville, SC",1,OK,done
68933,RUTTERS #23,US-30 & SR-462,Mountville,PA,70,3.979,3.979,40.0402,-76.4339,3908,40.03881,-76.42983,,"RUTTERS #23, US-30 & SR-462, Mountville, PA",1,OK,done
68935,JACKSONS FOOD STORES #144,I-84 & SR-55,Nampa,ID,785,3.899,3.899,43.5844,-116.5638,3909,43.58632,-116.57475,,"JACKSONS FOOD STORES #144, I-84 & SR-55, Nampa, ID",1,OK,done
68936,AMOCO,US-421/SR-11 & SR-53,Burgaw,NC,245,3.599,3.599,34.5509,-77.9224,3910,34.55534,-77.92231,,"AMOCO, US-421/SR-11 & SR-53, Burgaw, NC",1,OK,done
68937,LANTZ CORNERS MINI MART #255,US-6 & US-219,Kane,PA,240,3.71566666,3.71566666,41.6631,-78.8094,3911,41.70766,-78.69384,,"LANTZ CORNERS MINI MART #255, US-6 & US-219, Kane, PA",1,OK,done
68938,TOOT N TOTUM #23,SR-136/207 & SR-152,Borger,TX,585,3.01566666,3.01566666,35.6598,-101.4012,3912,35.66782,-101.39122,,"TOOT N TOTUM #23, SR-136/207 & SR-152, Borger, TX",1,OK,done
68941,ALLTOWN MARKETS #2743,"US-3, EXIT 28",North Billerica,MA,178,3.68233333,3.68233333,nan,nan,3913,42.57687,-71.25979,,"ALLTOWN MARKETS #2743, US-3, EXIT 28, North Billerica, MA",1,OK,done
68946,FLYING J #97,"I-75, EXIT 64",Vandalia,OH,317,3.35233333,3.35233333,39.8791,-84.193,3914,39.88351,-84.18765,,"FLYING J #97, I-75, EXIT 64, Vandalia, OH",1,OK,done
68947,PILOT TRAVEL CENTER #593,"I-10, EXIT 268",Tucson,AZ,980,3.30233333,3.30233333,32.1541,-110.8787,3915,32.12601,-110.87448,,"PILOT TRAVEL CENTER #593, I-10, EXIT 268, Tucson, AZ",1,OK,done
68949,JOES KWIK MARTS #475,US-15 & SR-20,Orange,VA,180,3.33233333,3.33233333,38.2485,-78.1129,3916,38.2397,-78.11104,,"JOES KWIK MARTS #475, US-15 & SR-20, Orange, VA",1,OK,done
68950,KWIK TRIP #608,US-52 & SR-30,Chatfield,MN,515,3.48233333,3.48233333,43.8445,-92.1829,3917,43.85348,-92.19246,,"KWIK TRIP #608, US-52 & SR-30, Chatfield, MN",1,OK,done
68951,KWIK TRIP #313,US-10 & SR-73,Neillsville,WI,395,3.339,3.339,44.5605,-90.5906,3918,44.55347,-90.59654,,"KWIK TRIP #313, US-10 & SR-73, Neillsville, WI",1,OK,done
68952,MAVERIK COUNTRY STORE #425,"I-84, EXIT 376, US-30/US-95",Fruitland,ID,785,3.36566666,3.36566666,44.0197,-116.922,3919,44.00772,-116.92368,,"MAVERIK COUNTRY STORE #425, I-84, EXIT 376, US-30/US-95, Fruitland, ID",1,OK,done
68956,SPEEDWAY #4533,"US-18/US-12, EXIT 146",Madison,WI,448,3.599,3.599,43.0822,-89.393,3920,43.06769,-89.42964,,"SPEEDWAY #4533, US-18/US-12, EXIT 146, Madison, WI",1,OK,done
68957,TA EXPRESS #6259,US-85/SR-200,Alexander,ND,273,3.52566666,3.52566666,47.8393,-103.6426,3921,47.80455,-103.64545,,"TA EXPRESS #6259, US-85/SR-200, Alexander, ND",1,OK,done
68959,SPEEDWAY #5215,"I-70, EXIT 66 & SR-54",South Vienna,OH,315,3.159,3.159,39.9294,-83.6138,3922,39.9271,-83.61203,,"SPEEDWAY #5215, I-70, EXIT 66 & SR-54, South Vienna, OH",1,OK,done
68960,MAVERIK COUNTRY STORE #484,"I-15/84, EXIT 343 & SR-126",Ogden,UT,835,3.39233333,3.39233333,41.2279,-111.9682,3923,41.24004,-111.97673,,"MAVERIK COUNTRY STORE #484, I-15/84, EXIT 343 & SR-126, Ogden, UT",1,OK,done
68964,JIFFY TRIP #201,US-64/SR-58,Cherokee,OK,337,3.269,3.269,36.7507,-98.3577,3924,36.75658,-98.35746,,"JIFFY TRIP #201, US-64/SR-58, Cherokee, OK",1,OK,done
68969,MAVERIK COUNTRY STORE #474,"I-80, EXIT 115, CR-154",Salt Lake City,UT,835,3.389,3.389,40.7776,-111.9311,3925,40.77198,-111.9387,,"MAVERIK COUNTRY STORE #474, I-80, EXIT 115, CR-154, Salt Lake City, UT",1,OK,done
68971,FLYING J #580,"I-20, EXIT 121",Odessa,TX,710,3.56566666,3.56566666,31.8801,-102.3448,3926,31.82902,-102.35545,,"FLYING J #580, I-20, EXIT 121, Odessa, TX",1,OK,done
68972,SUNOCO CLARA BARTON PLAZA #7005,NJTP MM 5 SB,Penns Grove,NJ,115,3.899,3.899,39.7275,-75.4691,3927,39.68519,-75.4827,,"SUNOCO CLARA BARTON PLAZA #7005, Penns Grove, NJ",3,OK,done
68974,STRIPES #40801,US-181 & SR-123 & CR-347,Karnes City,TX,625,3.174,3.174,28.8858,-97.9002,3928,28.86123,-97.89316,,"STRIPES #40801, US-181 & SR-123 & CR-347, Karnes City, TX",1,OK,done
68976,MAVERIK COUNTRY STORE #453,"I-80, EXIT 223 & SR-305",Battle Mountain,NV,835,3.389,3.389,40.6299,-116.9518,3929,40.64002,-116.93813,,"MAVERIK COUNTRY STORE #453, I-80, EXIT 223 & SR-305, Battle Mountain, NV",1,OK,done
68977,MAVERIK COUNTRY STORE #444,US-491 & US-666,Monticello,UT,835,3.489,3.489,37.8683,-109.338,3930,37.86318,-109.22196,,"MAVERIK COUNTRY STORE #444, US-491 & US-666, Monticello, UT",1,OK,done
68978,MAVERIK COUNTRY STORE #287,"I-84, EXIT 36 & US-30",Nampa,ID,785,3.38566666,3.38566666,43.5844,-116.5638,3931,,,"ERROR: 403 Denied: {""message"":""Missing Authentication Token""}",,99,ERROR,not done
68979,MAVERIK COUNTRY STORE #478,"I-40, EXIT 286 & SR-77",Holbrook,AZ,930,3.224,3.224,34.9044,-110.1672,3932,34.90253,-110.15823,,"MAVERIK COUNTRY STORE #478, I-40, EXIT 286 & SR-77, Holbrook, AZ",1,OK,done
68981,PETRO-CARD 24 #910450,US-63 & US-36,Macon,MO,494,3.239,3.239,39.7426,-92.4711,3933,39.73699,-92.4652,,"PETRO-CARD 24 #910450, US-63 & US-36, Macon, MO",1,OK,done
68982,SHELL,US-23,Grand Blanc,MI,342,3.799,3.799,42.9258,-83.6181,3934,42.91547,-83.72315,,"SHELL, US-23, Grand Blanc, MI",1,OK,done
68985,LOVES TRAVEL STOP #500,"I-35, EXIT 106",Eagleville,MO,320,3.789,3.789,40.4685,-93.9862,3935,40.46583,-93.97396,,"LOVES TRAVEL STOP #500, I-35, EXIT 106, Eagleville, MO",1,OK,done
68987,STRIPES #40535,I-35,Cotulla,TX,625,3.339,3.339,28.4364,-99.2367,3936,28.4514,-99.23873,,"STRIPES #40535, I-35, Cotulla, TX",1,OK,done
68988,7-ELEVEN #40547,US-281 & SR-29,Burnet,TX,740,2.95733333,2.95733333,30.7496,-98.2383,3937,30.60916,-98.26648,,"7-ELEVEN #40547, US-281 & SR-29, Burnet, TX",1,OK,done
68989,QUARLES #4907,SR-166,Norfolk,VA,130,3.809,3.809,36.8945,-76.259,3938,36.86906,-76.22649,,"QUARLES #4907, SR-166, Norfolk, VA",1,OK,done
68990,LOVES TRAVEL STOP #490,"I-24, EXIT 158",Jasper,TN,285,3.25233333,3.25233333,35.0663,-85.6227,3939,35.03638,-85.58298,,"LOVES TRAVEL STOP #490, I-24, EXIT 158, Jasper, TN",1,OK,done
68991,LOVES TRAVEL STOP #514,"I-90/US-395, EXIT 221 & SR-261",Ritzville,WA,970,3.987000000000001,4.049,47.1253,-118.3809,3940,46.94417,-118.34323,,"LOVES TRAVEL STOP #514, I-90/US-395, EXIT 221 & SR-261, Ritzville, WA",1,OK,done
68992,SHORT STOP #24,US-24,Saint Marys,KS,553,2.96733333,2.96733333,nan,nan,3941,39.21659,-96.14734,,"SHORT STOP #24, US-24, Saint Marys, KS",1,OK,done
68993,SHORT STOP #22,SR-15,Clay Center,KS,316,2.97233333,2.97233333,39.3812,-97.1276,3942,39.37026,-97.12445,,"SHORT STOP #22, SR-15, Clay Center, KS",1,OK,done
68994,SHORT STOP #25,US-36 & SR-15,Washington,KS,316,2.90233333,2.90233333,39.816,-97.0487,3943,39.81373,-97.04861,,"SHORT STOP #25, US-36 & SR-15, Washington, KS",1,OK,done
68995,ALLTOWN MARKETS #839,"I-95, EXIT 10",Darien,CT,100,3.83233333,3.83233333,nan,nan,3944,41.07143,-73.48028,,"ALLTOWN MARKETS #839, I-95, EXIT 10, Darien, CT",1,OK,done
68996,BLU / DRIVEN FUELS,"I-15, EXIT 113",Idaho Falls,ID,825,3.479,3.479,43.4871,-112.0362,3945,43.43846,-112.11407,,"BLU / DRIVEN FUELS, I-15, EXIT 113, Idaho Falls, ID",1,OK,done
69002,KWIK TRIP #863,US-10,Stevens Point,WI,395,3.584,3.584,44.5241,-89.5507,3946,44.50412,-89.5671,,"KWIK TRIP #863, US-10, Stevens Point, WI",1,OK,done
69004,Maplefields,HWY 9 N & ROUTE 22,Ticonderoga,NY,39,3.749,3.749,nan,nan,3947,43.80674,-73.40591,,"Maplefields, HWY 9 N & ROUTE 22, Ticonderoga, NY",1,OK,done
69005,SPEEDWAY #1017,"I-70, EXIT 186 & SR-285",Lore City,OH,315,3.23233333,3.23233333,39.9832,-81.46,3948,39.98372,-81.45912,,"SPEEDWAY #1017, I-70, EXIT 186 & SR-285, Lore City, OH",1,OK,done
69006,PILOT #449,"I-70, EXIT 208",Belmont,OH,165,3.539,3.539,40.028,-81.0409,3949,40.06151,-81.04879,,"PILOT #449, I-70, EXIT 208, Belmont, OH",1,OK,done
69007,SPEEDWAY #7136,US-41 & US-70,Nashville,TN,460,3.24233333,3.24233333,36.1715,-86.7842,3950,36.14995,-86.76532,,"SPEEDWAY #7136, US-41 & US-70, Nashville, TN",1,OK,done
69008,SPEEDWAY #7137,SR-42 & SR-111,Cookeville,TN,460,3.07733333,3.07733333,36.1482,-85.5109,3951,36.13353,-85.4801,,"SPEEDWAY #7137, SR-42 & SR-111, Cookeville, TN",1,OK,done
69009,PILOT #1140,US-287,Rhome,TX,630,3.17566666,3.17566666,33.0646,-97.4779,3952,33.05625,-97.47948,,"PILOT #1140, US-287, Rhome, TX",1,OK,done
69010,PILOT TRAVEL CENTER #1023,US-69 & US-59/SR-287,Lufkin,TX,610,3.659,3.659,31.3217,-94.7277,3953,31.31785,-94.6986,,"PILOT TRAVEL CENTER #1023, US-69 & US-59/SR-287, Lufkin, TX",1,OK,done
69013,SPEEDWAY #7124,US-231/SR-10,Lebanon,TN,460,3.024,3.024,36.204,-86.3481,3954,36.06611,-86.34448,,"SPEEDWAY #7124, US-231/SR-10, Lebanon, TN",1,OK,done
69014,SPEEDWAY #4100,"I-94, EXIT 308 & US-41",Milwaukee,WI,448,3.599,3.599,43.0642,-87.9675,3955,43.034,-87.96504,,"SPEEDWAY #4100, I-94, EXIT 308 & US-41, Milwaukee, WI",1,OK,done
69015,Joe's Kwik Mart,"I-75, EXIT 7 & US-11 & US-64",Chattanooga,TN,285,3.149,3.149,35.066,-85.2481,3956,35.03176,-85.30896,,"Joe's Kwik Mart, I-75, EXIT 7 & US-11 & US-64, Chattanooga, TN",1,OK,done
69016,SPEEDWAY #7606,"I-75, EXIT 25",Corbin,KY,405,3.519,3.519,36.9323,-84.1006,3957,36.90988,-84.18348,,"SPEEDWAY #7606, I-75, EXIT 25, Corbin, KY",1,OK,done
69017,SHELL,US-71 & SR-511,Bossier City,LA,745,2.999,2.999,32.5224,-93.6668,3958,32.46009,-93.66208,,"SHELL, US-71 & SR-511, Bossier City, LA",1,OK,done
69021,SWEET CRUDE TRAVEL CENTER,HWY 85 & SR 200,Grassy Butte,ND,273,3.64066666,3.64066666,nan,nan,3959,47.38622,-103.23994,,"SWEET CRUDE TRAVEL CENTER, HWY 85 & SR 200, Grassy Butte, ND",1,OK,done
69027,SPINX #134 (DISCOUNT AVAILABLE),SR-55 & 418,Simpsonville,SC,30,3.06566666,3.06566666,34.7287,-82.2569,3960,34.71745,-82.2558,,"SPINX #134 (DISCOUNT AVAILABLE), SR-55 & 418, Simpsonville, SC",1,OK,done
69028,LOVES TRAVEL STOP #427,"I-75, EXIT 51",Dayton,OH,317,3.319,3.319,39.7805,-84.2003,3961,39.73336,-84.20894,,"LOVES TRAVEL STOP #427, I-75, EXIT 51, Dayton, OH",1,OK,done
69029,LOVES TRAVEL STOP #461,"I-70, EXIT 246A",Saint Louis,MO,540,3.114,3.114,nan,nan,3962,38.68509,-90.21825,,"LOVES TRAVEL STOP #461, I-70, EXIT 246A, Saint Louis, MO",1,OK,done
69030,LOVES TRAVEL STOP #424,"I-20, EXIT 51",Lexington,SC,135,3.40733333,3.40733333,33.989,-81.2202,3963,33.92394,-81.29036,,"LOVES TRAVEL STOP #424, I-20, EXIT 51, Lexington, SC",1,OK,done
69031,LOVES TRAVEL STOP #492,"I-20, EXIT 42 & US-285",Pecos,TX,710,3.452,3.455,nan,nan,3964,31.39913,-103.48033,,"LOVES TRAVEL STOP #492, I-20, EXIT 42 & US-285, Pecos, TX",1,OK,done
69032,FLYING J #866,HIGHWAY 11/17,Pass Lake,ON,700,4.809575396666667,4.90932581,nan,nan,3965,48.56387,-88.73896,,"FLYING J #866, HIGHWAY 11/17, Pass Lake, ON",1,OK,done
69036,REFUEL #1038,US-15 & SR-151,Hartsville,SC,46,3.36566666,3.36566666,34.3675,-80.0829,3966,34.37781,-80.04206,,"REFUEL #1038, US-15 & SR-151, Hartsville, SC",1,OK,done
69037,CIRCLE K #2723192,US-64 & US-421,Siler City,NC,177,2.949,2.949,35.7251,-79.456,3967,35.73337,-79.46188,,"CIRCLE K #2723192, US-64 & US-421, Siler City, NC",1,OK,done
69038,REFUEL #1028,US-421/US-52 & US-15,Society Hill,SC,63,3.399,3.399,34.5098,-79.8539,3968,34.50743,-79.85614,,"REFUEL #1028, US-421/US-52 & US-15, Society Hill, SC",1,OK,done
69041,SPEEDWAY #7960,US-258/US-13,Farmville,NC,205,2.899,2.899,35.5951,-77.5907,3969,35.53428,-77.60092,,"SPEEDWAY #7960, US-258/US-13, Farmville, NC",1,OK,done
69042,Joes Kwik Mart #7012,US-17/701,Georgetown,SC,205,2.999,2.999,33.3594,-79.2958,3970,33.28528,-79.34951,,"Joes Kwik Mart #7012, US-17/701, Georgetown, SC",1,OK,done
69043,KWIK TRIP #204,"US-51, EXIT 188",Wausau,WI,395,3.33233333,3.33233333,44.962,-89.6459,3971,44.935,-89.61493,,"KWIK TRIP #204, US-51, EXIT 188, Wausau, WI",1,OK,done
69045,TA BRUNSWICK #6258,"I-95, EXIT 29",Brunswick,GA,75,3.46066666,3.46066666,31.1449,-81.4746,3972,31.14297,-81.57177,,"TA BRUNSWICK #6258, I-95, EXIT 29, Brunswick, GA",1,OK,done
69046,SPEEDWAY #6303,"I-96, EXIT 4 & US-31",Muskegon,MI,456,3.3269999999999995,3.379,43.2281,-86.2562,3973,43.13284,-86.22036,,"SPEEDWAY #6303, I-96, EXIT 4 & US-31, Muskegon, MI",1,OK,done
69047,SPEEDWAY #7461,I-294 & SR-50/SR-31,Alsip,IL,293,3.219,3.219,41.6701,-87.7368,3974,41.66161,-87.71958,,"SPEEDWAY #7461, I-294 & SR-50/SR-31, Alsip, IL",1,OK,done
69048,QUICK FUEL #2104,"I-74, EXIT 11",Indianapolis,IN,375,3.66233333,3.66233333,39.7771,-86.1458,3975,39.73454,-86.25626,,"QUICK FUEL #2104, I-74, EXIT 11, Indianapolis, IN",1,OK,done
69049,CIRCLE K #2741787,"I-440, EXIT 7 & US-165",North Little Rock,AR,695,3.369,3.369,34.7807,-92.2371,3976,34.73076,-92.17307,,"CIRCLE K #2741787, I-440, EXIT 7 & US-165, North Little Rock, AR",1,OK,done
69051,PILOT TRAVEL CENTER #1225,"I-64, EXIT 23 & SR-4",Mascoutah,IL,540,3.839,3.859,38.5192,-89.8045,3977,38.55559,-89.80645,,"PILOT TRAVEL CENTER #1225, I-64, EXIT 23 & SR-4, Mascoutah, IL",1,OK,done
69052,PILOT DEALER #1193,US-93,Wikieup,AZ,930,3.869,3.899,34.6931,-113.5995,3978,34.69949,-113.6102,,"PILOT DEALER #1193, US-93, Wikieup, AZ",1,OK,done
69053,PILOT #1192,US-60,Wittmann,AZ,930,4.899,4.899,33.7749,-112.525,3979,33.76551,-112.51429,,"PILOT #1192, US-60, Wittmann, AZ",1,OK,done
69055,PILOT DEALER #1058,US-301 & SR-200,Waldo,FL,140,3.799,3.799,29.7925,-82.1663,3980,29.78623,-82.16728,,"PILOT DEALER #1058, US-301 & SR-200, Waldo, FL",1,OK,done
69057,MACH ONE FOOD SHOP #18,US-45/SR-15,Fairfield,IL,340,3.744,3.759,38.3798,-88.3723,3981,42.21913,-88.06295,,"MACH ONE FOOD SHOP #18, US-45/SR-15, Fairfield, IL",1,OK,done
69058,FOOD N FUEL,SR-53,Joliet,IL,365,3.5490000000000004,3.599,41.5188,-88.1499,3982,41.48037,-88.08098,,"FOOD N FUEL, SR-53, Joliet, IL",1,OK,done
69059,LOVES TRAVEL STOP #530,"I-20, EXIT 147",Moody,AL,615,3.17566666,3.17566666,33.5986,-86.4963,3983,33.57508,-86.47805,,"LOVES TRAVEL STOP #530, I-20, EXIT 147, Moody, AL",1,OK,done
69061,SPINX #125 (DISCOUNT AVAILABLE),US-25 & SR-331,Piedmont,SC,30,3.06566666,3.06566666,34.7074,-82.4651,3984,34.77246,-82.38871,,"SPINX #125 (DISCOUNT AVAILABLE), US-25 & SR-331, Piedmont, SC",1,OK,done
69064,DUCK THRU #7,US-258,Rich Square,NC,130,3.699,3.699,36.2739,-77.2839,3985,36.27346,-77.28448,,"DUCK THRU #7, US-258, Rich Square, NC",1,OK,done
69067,AP FUEL STOP,"I-75, EXIT 120",Lima,OH,411,3.08066666,3.08066666,40.741,-84.112,3986,40.75383,-84.08962,,"AP FUEL STOP, I-75, EXIT 120, Lima, OH",1,OK,done
69069,SPINX #179 (DISCOUNT AVAILABLE),SR-291,Greenville,SC,210,3.799,3.799,34.8354,-82.3646,3987,34.8475,-82.3608,,"SPINX #179 (DISCOUNT AVAILABLE), SR-291, Greenville, SC",1,OK,done
69073,LOVES TRAVEL CENTER #518,"I-15, EXIT 260 & SR-77",Springville,UT,835,3.749,3.809,40.1638,-111.6205,3988,40.16653,-111.60587,,"LOVES TRAVEL CENTER #518, I-15, EXIT 260 & SR-77, Springville, UT",1,OK,done
69076,A PLUS MINI MARKET,"I-95, MM 82",Aberdeen,MD,22,3.83233333,3.83233333,39.5151,-76.1733,3989,39.50738,-76.16686,,"A PLUS MINI MARKET, I-95, MM 82, Aberdeen, MD",1,OK,done
69077,FLYING J #554,"I-37, EXIT 56",George West,TX,740,3.199,3.199,28.33,-98.1183,3990,28.3377,-98.02359,,"FLYING J #554, I-37, EXIT 56, George West, TX",1,OK,done
69078,PILOT #559,"I-20, EXIT 178",Big Spring,TX,612,3.659,3.659,32.2389,-101.4799,3991,32.25125,-101.47718,,"PILOT #559, I-20, EXIT 178, Big Spring, TX",1,OK,done
69079,Circle K #2746432,SR-2,Stanley,ND,452,3.549,3.549,48.3137,-102.3974,3992,46.76137,-100.70419,,"SR-2, Stanley, ND",4,OK,done
69084,TIGER MART #79,SR-287 & FM-664,Waxahachie,TX,630,2.849,2.849,32.4035,-96.8446,3993,32.41423,-96.87375,,"TIGER MART #79, SR-287 & FM-664, Waxahachie, TX",1,OK,done
69085,FATDOGS OGALLALA,"US-80, EXIT 126 & US-26/SR-61",Ogallala,NE,475,3.014,3.014,41.1292,-101.7211,3994,41.16342,-101.72566,,"FATDOGS OGALLALA, US-80, EXIT 126 & US-26/SR-61, Ogallala, NE",1,OK,done
69088,SPEEDWAY #3478,US-9 & SR-184,Perth Amboy,NJ,115,3.419,3.419,40.5202,-74.2724,3995,40.51207,-74.28108,,"SPEEDWAY #3478, US-9 & SR-184, Perth Amboy, NJ",1,OK,done
69091,SPEEDWAY #6670,US-36/SR-67,Indianapolis,IN,375,3.229,3.229,39.7771,-86.1458,3996,39.7876,-86.23793,,"SPEEDWAY #6670, US-36/SR-67, Indianapolis, IN",1,OK,done
69095,JACKSONS FOOD STORE #23,"SR-395, EXIT 78",Reno,NV,966,3.999,3.999,39.5497,-119.8483,3997,39.51789,-119.90178,,"JACKSONS FOOD STORE #23, SR-395, EXIT 78, Reno, NV",1,OK,done
69096,SPEEDWAY #2907,US-62 & SR-18,Hermitage,PA,165,3.93733333,3.93733333,41.2305,-80.4413,3998,41.23396,-80.44944,,"SPEEDWAY #2907, US-62 & SR-18, Hermitage, PA",1,OK,done
69097,CIRCLE K #2741192,"I-30, EXIT 42B & SR-180",Dallas,TX,630,2.899,2.899,32.7935,-96.7667,3999,32.66336,-96.57185,,"CIRCLE K #2741192, I-30, EXIT 42B & SR-180, Dallas, TX",1,OK,done
69098,CIRCLE K #2741318,SR-285 & CR-160,Dripping Springs,TX,595,3.049,3.049,30.196,-98.0938,4000,30.17422,-98.24631,,"CIRCLE K #2741318, SR-285 & CR-160, Dripping Springs, TX",1,OK,done
69099,LOVES TRAVEL STOP #523,"I-10, EXIT 92",Rayne,LA,600,3.149,3.149,30.2403,-92.2668,4001,30.25177,-92.19438,,"LOVES TRAVEL STOP #523, I-10, EXIT 92, Rayne, LA",1,OK,done
69100,DADS NORTH YELLOWSTONE,US-26,Idaho Falls,ID,825,3.599,3.599,43.4871,-112.0362,4002,43.49258,-112.03783,,"DADS NORTH YELLOWSTONE, US-26, Idaho Falls, ID",1,OK,done
69101,BROMPTON VALERO,"I-20, EXIT 147 WEST",Moody,AL,615,3.12233333,3.12233333,33.5986,-86.4963,4003,,,"ERROR: 403 Denied: {""message"":""Missing Authentication Token""}",,99,ERROR,not done
69102,CIRCLE K #4701445,"I-57, EXIT 250 & US-36",Rantoul,IL,280,3.699,3.799,40.3031,-88.1549,4004,40.30891,-88.1755,,"CIRCLE K #4701445, I-57, EXIT 250 & US-36, Rantoul, IL",1,OK,done
69103,LOVES TRAVEL STOP #539,US-385 & FM-1910,Andrews,TX,710,3.689,3.689,32.3207,-102.552,4005,32.30563,-102.54174,,"LOVES TRAVEL STOP #539, US-385 & FM-1910, Andrews, TX",1,OK,done
69104,QUIKTRIP #970,SR-12 & SR-180,Dallas,TX,630,2.97566666,2.97566666,32.7935,-96.7667,4006,32.74935,-96.83921,,"QUIKTRIP #970, SR-12 & SR-180, Dallas, TX",1,OK,done
69106,SPINX #201,"I-185, EXIT 1A, I-385, EXIT 30",Simpsonville,SC,30,2.96566666,2.96566666,34.7287,-82.2569,4007,34.72696,-82.26236,,"SPINX #201, I-185, EXIT 1A, I-385, EXIT 30, Simpsonville, SC",1,OK,done
69109,SHEETZ #497,"I-99, EXIT 15 & US-220 (BUSINESS)",Claysburg,PA,14,3.644,3.644,40.2915,-78.4514,4008,40.27479,-78.46769,,"SHEETZ #497, I-99, EXIT 15 & US-220 (BUSINESS), Claysburg, PA",1,OK,done
69110,SHEETZ #498,US-22/US-119,Blairsville,PA,165,3.52733333,3.52733333,40.4326,-79.2599,4009,40.44676,-79.20985,,"SHEETZ #498, US-22/US-119, Blairsville, PA",1,OK,done
69112,LOVES TRAVEL STOP #529,"I-39, EXIT 54",Oglesby,IL,290,3.488999999999999,3.589,41.2932,-89.071,4010,41.29378,-89.08608,,"LOVES TRAVEL STOP #529, I-39, EXIT 54, Oglesby, IL",1,OK,done
69115,BP,"I-90, EXIT 387/CR-151",Hartford,SD,530,2.97733333,2.97733333,43.621,-96.9424,4011,43.61827,-96.95042,,"BP, I-90, EXIT 387/CR-151, Hartford, SD",1,OK,done
69117,SPEEDWAY #6395,US-24 & SR-64,Waterville,OH,550,3.699,3.699,41.5015,-83.7367,4012,41.50035,-83.7156,,"SPEEDWAY #6395, US-24 & SR-64, Waterville, OH",1,OK,done
69119,CIRCLE K #2741217,"I-24, EXIT 242 & US-550/SR-24",Bernalillo,NM,580,3.52566666,3.52566666,35.3127,-106.5537,4013,35.31997,-106.54823,,"CIRCLE K #2741217, I-24, EXIT 242 & US-550/SR-24, Bernalillo, NM",1,OK,done
69122,DOUBLE QUICK #61,US-82,Leland,MS,655,3.299,3.299,33.4051,-90.8909,4014,33.40188,-90.88291,,"DOUBLE QUICK #61, US-82, Leland, MS",1,OK,done
69123,LATTA TRAVEL STOP,SR-1,Ada,OK,569,3.10733333,3.10733333,34.7662,-96.6681,4015,34.74672,-96.7055,,"LATTA TRAVEL STOP, SR-1, Ada, OK",1,OK,done
69124,LOVES TRAVEL STOP #467,"I-95, EXIT 131 & SR-68",Fort Pierce,FL,95,3.50566666,3.50566666,27.4255,-80.3431,4016,27.44561,-80.39798,,"LOVES TRAVEL STOP #467, I-95, EXIT 131 & SR-68, Fort Pierce, FL",1,OK,done
69125,TA BROOKLYN,"I-80, EXIT 197",Brooklyn,IA,380,3.819,3.819,41.732,-92.445,4017,41.69622,-92.43892,,"TA BROOKLYN, I-80, EXIT 197, Brooklyn, IA",1,OK,done
69127,TALL TIMBERS TRUCK STOP,"I-55, EXIT 46 & SR-16",Amite,LA,600,2.999,2.999,nan,nan,4018,29.91172,-90.01166,,"TALL TIMBERS TRUCK STOP, I-55, EXIT 46 & SR-16, Amite, LA",1,OK,done
69128,BEACON & BRIDGE #34,"US-127, EXIT 194 & SR-55",Houghton Lake,MI,260,3.399,3.399,44.3019,-84.7491,4019,44.33532,-84.80116,,"BEACON & BRIDGE #34, US-127, EXIT 194 & SR-55, Houghton Lake, MI",1,OK,done
69132,PILOT #1001,US-67 & SR-137,Big Lake,TX,710,4.059,4.059,31.1941,-101.4534,4020,31.19402,-101.48308,,"PILOT #1001, US-67 & SR-137, Big Lake, TX",1,OK,done
69133,PILOT TRAVEL CENTERS #557,US-180 & US-62,Hobbs,NM,593,3.729,3.729,32.7281,-103.16,4021,32.72532,-103.14782,,"PILOT TRAVEL CENTERS #557, US-180 & US-62, Hobbs, NM",1,OK,done
69134,LOVES TRAVEL STOP #486,"I-40 & US-270, EXIT 166",Choctaw,OK,483,3.33733333,3.33733333,35.4802,-97.2666,4022,35.39538,-97.26634,,"LOVES TRAVEL STOP #486, I-40 & US-270, EXIT 166, Choctaw, OK",1,OK,done
69135,SPEEDWAY #8013,"I-70, EXIT 21",Brookville,OH,317,3.34066666,3.34066666,39.8393,-84.4176,4023,39.84548,-84.42541,,"SPEEDWAY #8013, Brookville, OH",3,OK,done
69137,CIRCLE K #2741564,"I-35/US-77, EXIT 338B",Waco,TX,765,2.889,2.889,31.5599,-97.1882,4024,31.55544,-97.12095,,"CIRCLE K #2741564, I-35/US-77, EXIT 338B, Waco, TX",1,OK,done
69139,CIRCLE K #2741545,SR-72 & US-87,Cuero,TX,747,3.099,3.099,29.1023,-97.2871,4025,29.07741,-97.30016,,"CIRCLE K #2741545, SR-72 & US-87, Cuero, TX",1,OK,done
69141,LOVES TRAVEL STOP #558,US-283 & US-400/US-56,Dodge City,KS,570,3.789,3.789,37.7611,-100.0182,4026,37.74516,-99.98017,,"LOVES TRAVEL STOP #558, US-283 & US-400/US-56, Dodge City, KS",1,OK,done
69142,LOVES TRAVEL STOP #517,"I-70, EXIT 26 & US-50/6",Grand Junction,CO,800,3.989,3.989,39.0877,-108.5673,4027,39.1139,-108.64604,,"LOVES TRAVEL STOP #517, I-70, EXIT 26 & US-50/6, Grand Junction, CO",1,OK,done
69143,MACH 1 #21,US-45 & SR-34,Harrisburg,IL,510,3.689,3.689,37.7374,-88.5457,4028,37.72657,-88.53711,,"MACH 1 #21, US-45 & SR-34, Harrisburg, IL",1,OK,done
69144,STRIPES 7FLEET #42530,SR-71 & SR-16,Llano,TX,740,3.23233333,3.23233333,30.7509,-98.6763,4029,30.73707,-98.67409,,"STRIPES 7FLEET #42530, SR-71 & SR-16, Llano, TX",1,OK,done
69145,SPEEDWAY #9561,"I-77, EXIT 132",Ripley,WV,44,3.499,3.499,38.8201,-81.7091,4030,38.76185,-81.69256,,"SPEEDWAY #9561, I-77, EXIT 132, Ripley, WV",1,OK,done
69146,DRUMS FUEL STOP,I-80 EXIT 262,Drums,PA,200,3.569,3.569,nan,nan,4031,,,"ERROR: 403 Denied: {""message"":""Missing Authentication Token""}",,99,ERROR,not done
69149,BLU STATION- LAMAR AVE,"I-240, EXIT 30",Memphis,TN,435,2.969,2.969,35.1087,-89.9663,4032,35.07399,-89.94951,,"BLU STATION- LAMAR AVE, I-240, EXIT 30, Memphis, TN",1,OK,done
69150,BLU STATION,"I-70, EXIT 66 & SR-267",Plainfield,IN,375,3.479,3.479,39.6954,-86.3716,4033,39.67927,-86.36901,,"BLU STATION, I-70, EXIT 66 & SR-267, Plainfield, IN",1,OK,done
69151,PILOT #592,"I-70, EXIT 26 & US-50",Grand Junction,CO,800,3.999,3.999,39.0877,-108.5673,4034,39.0646,-108.56972,,"PILOT #592, I-70, EXIT 26 & US-50, Grand Junction, CO",1,OK,done
69152,LOVES TRAVEL STOP #557,"US-64/167, EXIT 44 & SR-367",Searcy,AR,695,3.36233333,3.36233333,35.2418,-91.7351,4035,35.21898,-91.71631,,"LOVES TRAVEL STOP #557, US-64/167, EXIT 44 & SR-367, Searcy, AR",1,OK,done
69153,Pilot Travel Center #1550,"I-65, EXIT 304 & SR-69/CR-437",Cullman,AL,615,3.859,3.859,34.1775,-86.8407,4036,34.0507,-86.87261,,"Pilot Travel Center #1550, I-65, EXIT 304 & SR-69/CR-437, Cullman, AL",1,OK,done
69155,PILOT TRAVEL CENTERS #1004,"I-35, EXIT 214 & US-60",Tonkawa,OK,500,3.59566666,3.59566666,36.6769,-97.3235,4037,36.69587,-97.34937,,"PILOT TRAVEL CENTERS #1004, I-35, EXIT 214 & US-60, Tonkawa, OK",1,OK,done
69156,BLU STATION,"I-55, EXIT 5A",Memphis,TN,435,2.969,2.969,35.1087,-89.9663,4038,35.13238,-89.88771,,"BLU STATION, I-55, EXIT 5A, Memphis, TN",1,OK,done
69159,EXXON,US-15 & SR-49,Lawrenceville,PA,32,3.699,3.699,41.9959,-77.1304,4039,41.99697,-77.12804,,"EXXON, US-15 & SR-49, Lawrenceville, PA",1,OK,done
69162,Shell,US-20 & SR-15,Goshen,IN,370,3.549,3.549,41.5743,-85.8309,4040,41.59807,-85.83377,,"Shell, US-20 & SR-15, Goshen, IN",1,OK,done
69163,CUBBYS #406,"I-229, EXIT 9 & SR-115",Sioux Falls,SD,530,3.099,3.099,43.5396,-96.7311,4041,43.54501,-96.73151,,"CUBBYS #406, I-229, EXIT 9 & SR-115, Sioux Falls, SD",1,OK,done
69164,CIRCLE K #2741557,US-190 & SR-195 & SR-3470,Killeen,TX,765,2.76233333,2.76233333,31.0753,-97.7297,4042,31.08392,-97.75626,,"CIRCLE K #2741557, US-190 & SR-195 & SR-3470, Killeen, TX",1,OK,done
69165,EL TIPI QUICK STOP,US-283 & SR-15,Shattuck,OK,337,3.23233333,3.23233333,36.2649,-99.8774,4043,36.27582,-99.86682,,"EL TIPI QUICK STOP, US-283 & SR-15, Shattuck, OK",1,OK,done
69167,HOBO TRUCK STOP 2,US-50/400 & US-83,Garden City,KS,525,3.399,3.399,37.9753,-100.8527,4044,38.00305,-100.87592,,"HOBO TRUCK STOP 2, US-50/400 & US-83, Garden City, KS",1,OK,done
69168,STRIPES 7FLEET #42470,I-20 EXIT 324 & CR-134,Cisco,TX,575,3.12733333,3.12733333,32.3848,-98.9805,4045,32.38176,-99.09634,,"STRIPES 7FLEET #42470, I-20 EXIT 324 & CR-134, Cisco, TX",1,OK,done
69169,LAMBOS #5,"I-57, EXIT 212 & SR-36/CR-950",Tuscola,IL,280,3.229,3.229,39.7968,-88.2749,4046,39.79171,-88.34326,,"LAMBOS #5, I-57, EXIT 212 & SR-36/CR-950, Tuscola, IL",1,OK,done
69170,SPEEDWAY #9381,US-50 & SR-14,Parkersburg,WV,430,3.464,3.464,39.2623,-81.542,4047,39.21808,-81.54544,,"SPEEDWAY #9381, US-50 & SR-14, Parkersburg, WV",1,OK,done
69171,KWIK STAR #215,US-61,Davenport,IA,270,3.649,3.649,41.5565,-90.6053,4048,41.50738,-90.67721,,"KWIK STAR #215, US-61, Davenport, IA",1,OK,done
69172,KWIK TRIP #210,"US-53, EXIT 90",Eau Claire,WI,295,3.40733333,3.40733333,44.8197,-91.4948,4049,44.82348,-91.54287,,"KWIK TRIP #210, US-53, EXIT 90, Eau Claire, WI",1,OK,done
69173,KWIK TRIP #231,US-61 & SR-310,Boscobel,WI,335,3.474,3.474,43.1437,-90.6948,4050,43.14087,-90.71081,,"KWIK TRIP #231, US-61 & SR-310, Boscobel, WI",1,OK,done
69174,KWIK TRIP #860,SR-17,Rhinelander,WI,395,3.45233333,3.45233333,45.6358,-89.4261,4051,45.65511,-89.39985,,"KWIK TRIP #860, SR-17, Rhinelander, WI",1,OK,done
69175,KWIK TRIP #854,US-212 & CR-33,Norwood Young America,MN,453,3.674,3.674,44.7721,-93.9192,4052,44.77221,-93.93945,,"KWIK TRIP #854, US-212 & CR-33, Norwood Young America, MN",1,OK,done
69176,FLYING J TRAVEL PLAZA #1015- TOWN PUMP,SR-200/SR-16 & CR-123,Sidney,MT,780,3.384,3.384,47.7152,-104.1679,4053,47.71585,-104.15652,,"FLYING J TRAVEL PLAZA #1015- TOWN PUMP, SR-200/SR-16 & CR-123, Sidney, MT",1,OK,done
69177,LOVES TRAVEL STOP #426,"I-80, EXIT 34",Shelby,IA,433,3.649,3.649,41.5067,-95.4506,4054,41.49663,-95.4518,,"LOVES TRAVEL STOP #426, I-80, EXIT 34, Shelby, IA",1,OK,done
69178,LOVES TRAVEL STOP #495,"I-75, EXIT 143 & CR-78",North Fort Myers,FL,225,3.789,3.789,26.7244,-81.8485,4055,26.71402,-81.81502,,"LOVES TRAVEL STOP #495, I-75, EXIT 143 & CR-78, North Fort Myers, FL",1,OK,done
