OPIS Truckstop ID,Truckstop_Name,Address,City,State,Rack_ID,Average_Retail_Price,Highest_Price,city_lat,city_lon,row_index,Geocoded_Lat,Geocoded_Lon,Matched_Address,Query_Used,Attempt,Geocode_Status,Done
7269,GRAND ISLAND TRAVEL CENTER,"I-80, EXIT 312 & US-281/US-34",Grand Island,NE,330,3.26566666,3.26566666,40.9218,-98.3586,1014,40.83143,-98.38251,,"GRAND ISLAND TRAVEL CENTER, I-80, EXIT 312 & US-281/US-34, Grand Island, NE",1,OK,done
7282,ALLTOWN FRESH,"I-87, EXIT 17N & US-9",Fort Edward,NY,12,3.769,3.779,nan,nan,1015,43.24304,-73.68111,,"ALLTOWN FRESH, I-87, EXIT 17N & US-9, Fort Edward, NY",1,OK,done
7284,MURALTS TRUCK PLAZA,"I-90, EXIT 96 & US-93/SR-200",Missoula,MT,820,3.609,3.609,46.8751,-114.0214,1016,,,"ERROR: 403 Denied: {""message"":""Missing Authentication Token""}",,99,ERROR,not done
7285,SENECA ONE STOP,"SR-17, EXIT 20",Salamanca,NY,38,3.309,3.309,42.1631,-78.7233,1017,42.15889,-78.74506,,"SENECA ONE STOP, SR-17, EXIT 20, Salamanca, NY",1,OK,done
7286,TA MISSOULA,"I-90, EXIT 96 & US-93",Missoula,MT,820,3.699,3.699,46.8751,-114.0214,1018,46.8723,-113.99413,,"TA MISSOULA, I-90, EXIT 96 & US-93, Missoula, MT",1,OK,done
7288,TA LAUREL,"I-90, EXIT 437",Laurel,MT,780,3.61233333,3.61233333,45.6735,-108.7707,1019,45.66275,-108.76867,,"TA LAUREL, I-90, EXIT 437, Laurel, MT",1,OK,done
7289,TA STRAFFORD,"I-44, EXIT 88 & SR-125",Strafford,MO,535,3.36566666,3.36566666,37.2689,-93.1183,1020,,,"ERROR: 403 Denied: {""message"":""Missing Authentication Token""}",,99,ERROR,not done
7291,TA OAK GROVE TRAVEL CENTER,"I-70, EXIT 28",Oak Grove,MO,400,3.22233333,3.22233333,39.0075,-94.1282,1021,39.0167,-94.14113,,"TA OAK GROVE TRAVEL CENTER, I-70, EXIT 28, Oak Grove, MO",1,OK,done
7293,TA Matthews Travel Center,"I-55, EXIT 58 & SR-80",Matthews,MO,574,3.20566666,3.20566666,36.7584,-89.5688,1022,,,"ERROR: 403 Denied: {""message"":""Missing Authentication Token""}",,99,ERROR,not done
7299,GASPERS - FAST LANE,"I-70, EXIT 148 & US-54",Kingdom City,MO,392,2.959,2.959,38.9473,-91.9389,1023,38.9443,-91.94489,,"GASPERS - FAST LANE, I-70, EXIT 148 & US-54, Kingdom City, MO",1,OK,done
7300,B AND D AUTO TRUCK PLAZA,"I-44, EXIT 127",Lebanon,MO,416,3.099,3.099,37.6717,-92.6603,1024,37.64916,-92.66975,,"B AND D AUTO TRUCK PLAZA, I-44, EXIT 127, Lebanon, MO",1,OK,done
7310,AAA HOSPITALITY,"I-55, EXIT 220",Tillatoba,MS,435,2.784,2.784,33.9851,-89.896,1025,33.99712,-89.87071,,"AAA HOSPITALITY, I-55, EXIT 220, Tillatoba, MS",1,OK,done
7312,208 FUEL PLAZA,"I-70, EXIT 208",Belmont,OH,430,3.419,3.419,40.028,-81.0409,1026,40.06492,-81.02881,,"208 FUEL PLAZA, I-70, EXIT 208, Belmont, OH",1,OK,done
7314,TA MERIDIAN TRAVEL CENTER,"I-20 & I-59, EXIT 160",Meridian,MS,705,2.91233333,2.91233333,32.3846,-88.6896,1027,,,"ERROR: 403 Denied: {""message"":""Missing Authentication Token""}",,99,ERROR,not done
7323,TRUCKERS INN,"I-94/US-52, EXIT 127 & US-71",Sauk Centre,MN,453,3.22566666,3.22566666,45.736,-94.9523,1028,45.74279,-94.95319,,"TRUCKERS INN, I-94/US-52, EXIT 127 & US-71, Sauk Centre, MN",1,OK,done
7326,PETRO STOP #398,"I-35 & I-90, EXIT 11",Albert Lea,MN,515,4.099,4.099,43.6548,-93.3643,1029,43.65475,-93.32052,,"PETRO STOP #398, I-35 & I-90, EXIT 11, Albert Lea, MN",1,OK,done
7327,TA TEKONSHA,"I-69,EXIT 25 & SR-60",Tekonsha,MI,385,3.629,3.699,42.0964,-84.9903,1030,,,"ERROR: 403 Denied: {""message"":""Missing Authentication Token""}",,99,ERROR,not done
7331,SPEEDWAY #9266,US-52 & SR-234,Ironton,OH,255,3.699,3.699,38.5323,-82.6779,1031,38.57473,-82.81314,,"SPEEDWAY #9266, US-52 & SR-234, Ironton, OH",1,OK,done
7332,FLYING J #895,"I-75, EXIT 32A",Trenton,MI,325,3.379,3.559,42.1394,-83.1929,1032,42.13771,-83.23749,,"FLYING J #895, I-75, EXIT 32A, Trenton, MI",1,OK,done
7335,TA SAWYER TRAVEL CENTER,"I-94, EXIT 12",Sawyer,MI,465,3.694,3.699,nan,nan,1033,41.88612,-86.6007,,"TA SAWYER TRAVEL CENTER, I-94, EXIT 12, Sawyer, MI",1,OK,done
7337,TA BATTLE CREEK,"I-94, EXIT 104",Battle Creek,MI,385,4.0015,4.039,42.2985,-85.2296,1034,42.31329,-85.19507,,"TA BATTLE CREEK, I-94, EXIT 104, Battle Creek, MI",1,OK,done
7341,INTERSTATE TRAVEL PLAZA,"I-495, EXIT 14A & US-1",Wrentham,MA,175,3.699,3.699,nan,nan,1035,42.04,-71.34098,,"INTERSTATE TRAVEL PLAZA, I-495, EXIT 14A & US-1, Wrentham, MA",1,OK,done
7344,BEST QUICK STOP,US-1,Peabody,MA,178,3.61566666,3.61566666,42.5335,-70.9725,1036,42.53521,-70.98888,,"BEST QUICK STOP, US-1, Peabody, MA",1,OK,done
7353,DYSARTS SERVICE,"I-95, EXIT 44",Bangor,ME,26,3.799,3.799,44.8323,-68.7906,1037,44.77545,-68.8629,,"DYSARTS SERVICE, I-95, EXIT 44, Bangor, ME",1,OK,done
7354,CIRCLE K #4707065,"I-95, EXIT 2",Kittery,ME,125,3.899,3.899,nan,nan,1038,43.09995,-70.7481,,"CIRCLE K #4707065, I-95, EXIT 2, Kittery, ME",1,OK,done
7357,TA SLIDELL TRAVEL CENTER,"I-10, EXIT 266 & US-190",Slidell,LA,725,3.154,3.154,30.2887,-89.7828,1039,30.28532,-89.77725,,"TA SLIDELL TRAVEL CENTER, I-10, EXIT 266 & US-190, Slidell, LA",1,OK,done
7360,KINGS TRUCK STOP,ST 103,Port Barre,LA,600,3.189,3.189,30.5565,-91.9565,1040,30.55617,-91.95118,,"KINGS TRUCK STOP, ST 103, Port Barre, LA",1,OK,done
7364,Petro Stopping Center,"I-80, EXIT 226",Girard,OH,573,3.45233333,3.45233333,41.1665,-80.6963,1041,41.14109,-80.71776,,"Petro Stopping Center, I-80, EXIT 226, Girard, OH",1,OK,done
7370,TA SMITHS GROVE,"I-65, EXIT 38 & SR-101",Smiths Grove,KY,415,3.43233333,3.43233333,37.0503,-86.2083,1042,37.05235,-86.20828,,"TA SMITHS GROVE, I-65, EXIT 38 & SR-101, Smiths Grove, KY",1,OK,done
7371,One9 #392,"I-65, EXIT 81 & SR-84",Sonora,KY,415,3.19566666,3.19566666,37.5319,-85.8947,1043,37.52389,-85.89328,,"One9 #392, I-65, EXIT 81 & SR-84, Sonora, KY",1,OK,done
7372,TA WALTON #28,"I-75/I-71, EXIT 175 & SR-338",Walton,KY,300,3.00233333,3.00233333,38.8645,-84.6122,1044,38.85362,-84.62226,,"TA WALTON #28, I-75/I-71, EXIT 175 & SR-338, Walton, KY",1,OK,done
7379,KEYSTOP TRAVEL CENTER,"I-65, EXIT 2 & US-31W",Franklin,KY,460,2.899,2.899,36.7177,-86.5595,1045,36.71627,-86.52446,,"KEYSTOP TRAVEL CENTER, I-65, EXIT 2 & US-31W, Franklin, KY",1,OK,done
7382,TA FLORENCE TRAVEL CENTER,"I-75, EXIT 181",Florence,KY,300,3.07066666,3.07066666,38.9899,-84.6471,1046,38.99767,-84.64669,,"I-75 EXIT 181, Florence, KY",4,OK,done
7385,WAKEENEY 24 7 STORE #3,"I-70/US-40, EXIT 127 & US-283",Wakeeney,KS,525,3.09066666,3.09066666,nan,nan,1047,39.02218,-99.87175,,"WAKEENEY 24 7 STORE #3, I-70/US-40, EXIT 127 & US-283, Wakeeney, KS",1,OK,done
7387,TA Oakley,"I-70, EXIT 76 & US-40/US-83",Oakley,KS,525,3.649,3.649,39.1233,-100.8449,1048,39.13346,-100.86838,,"TA Oakley, I-70, EXIT 76 & US-40/US-83, Oakley, KS",1,OK,done
7389,GO MART FOOD STORE #58,"I-77, EXIT 1 & SR-7",Marietta,OH,430,3.799,3.799,39.4241,-81.4465,1049,39.40557,-81.41608,,"GO MART FOOD STORE #58, I-77, EXIT 1 & SR-7, Marietta, OH",1,OK,done
7396,7-ELEVEN #36180,US-20/SR-18,Monroeville,OH,550,3.614,3.614,41.244,-82.7018,1050,41.24336,-82.69402,,"7-ELEVEN #36180, US-20/SR-18, Monroeville, OH",1,OK,done
7398,FLYING J #913,"I-80, EXIT 142 & US-65",Altoona,IA,320,3.348999995,3.35566666,41.6483,-93.4783,1051,41.66191,-93.48439,,"FLYING J #913, I-80, EXIT 142 & US-65, Altoona, IA",1,OK,done
7403,FUEL MART #714,"I-75, EXIT 168",North Baltimore,OH,550,3.11233333,3.11233333,41.1803,-83.6695,1052,41.18514,-83.64813,,"FUEL MART #714, I-75, EXIT 168, North Baltimore, OH",1,OK,done
7406,PILOT TRAVEL CENTER #594,"I-29, EXIT 143",Sioux City,IA,527,3.65233333,3.699,42.4959,-96.3901,1053,42.43523,-96.3737,,"PILOT TRAVEL CENTER #594, I-29, EXIT 143, Sioux City, IA",1,OK,done
7407,TA IOWA 80 TRAVEL PLAZA,"I-80, EXIT 284",Walcott,IA,270,3.90233333,3.90233333,41.5989,-90.7744,1054,41.61847,-90.7768,,"TA IOWA 80 TRAVEL PLAZA, I-80, EXIT 284, Walcott, IA",1,OK,done
7408,FRIENDSHIP FOOD MART #99,US-224 & SR-61/SR-598,Willard,OH,249,3.63233333,3.63233333,41.0518,-82.7232,1055,41.04078,-82.71612,,"FRIENDSHIP FOOD MART #99, US-224 & SR-61/SR-598, Willard, OH",1,OK,done
7410,PILOT TRAVEL CENTERS #373,"I-35 & I-80, EXIT 126",Urbandale,IA,320,3.348999995,3.35566666,41.639,-93.7812,1056,41.63024,-93.77952,,"PILOT TRAVEL CENTERS #373, I-35 & I-80, EXIT 126, Urbandale, IA",1,OK,done
7412,PETRO STOPPING CENTER #374,"I-69, EXIT 245 & SR-28",Gaston,IN,457,3.53566666,3.53566666,40.314,-85.501,1057,40.27237,-85.55769,,"PETRO STOPPING CENTER #374, I-69, EXIT 245 & SR-28, Gaston, IN",1,OK,done
7416,GOOD TO GO #40,"I-65, EXIT 215 & SR-114",Rensselaer,IN,290,3.20066666,3.20066666,40.9375,-87.1684,1058,40.93325,-87.14579,,"GOOD TO GO #40, I-65, EXIT 215 & SR-114, Rensselaer, IN",1,OK,done
7417,SKY CITGO,US-30 & SR-23,Grovertown,IN,365,3.499,3.499,41.375,-86.5047,1059,41.37145,-86.50739,,"SKY CITGO, US-30 & SR-23, Grovertown, IN",1,OK,done
7418,JJS TRAVEL PLAZA,US-31 & US-24,Peru,IN,370,3.444,3.444,40.7593,-86.0756,1060,40.77458,-86.06754,,"JJS TRAVEL PLAZA, US-31 & US-24, Peru, IN",1,OK,done
7421,MIDLAND #1901,"I-70, EXIT 137 AT MILE 137",Cambridge City,IN,375,3.43233333,3.43233333,39.8125,-85.1703,1061,39.85301,-85.14904,,"MIDLAND #1901, I-70, EXIT 137 AT MILE 137, Cambridge City, IN",1,OK,done
7425,Petro Brazil,"I-70,  EXIT 23",Brazil,IN,375,3.989,3.989,39.5226,-87.124,1062,39.44925,-87.1276,,"Petro Brazil, I-70,  EXIT 23, Brazil, IN",1,OK,done
7429,TA CLAYTON,"I-70, EXIT 59 & SR-39",Clayton,IN,375,3.939,3.939,39.6892,-86.5234,1063,39.68886,-86.52144,,"TA CLAYTON, I-70, EXIT 59 & SR-39, Clayton, IN",1,OK,done
7435,PETRO STOPPING CENTER #375,"I-65, EXIT 201 & US-231/US-24",Remington,IN,365,3.699,3.699,40.7667,-87.1391,1064,40.76573,-87.15387,,"PETRO STOPPING CENTER #375, I-65, EXIT 201 & US-231/US-24, Remington, IN",1,OK,done
7436,TA WHITESTOWN,"I-65/US-52, EXIT 130",Whitestown,IN,375,3.57066666,3.57066666,39.9706,-86.3612,1065,39.94926,-86.35633,,"TA WHITESTOWN, I-65/US-52, EXIT 130, Whitestown, IN",1,OK,done
7437,PETRO STOPPING CENTER #379,"I-74,  EXIT 143",Greensburg,IN,375,3.999,3.999,39.3518,-85.5028,1066,39.31825,-85.3274,,"PETRO STOPPING CENTER #379, I-74,  EXIT 143, Greensburg, IN",1,OK,done
7457,TA EFFINGHAM TRAVEL CENTER,"I-57 & I-70, EXIT 160",Effingham,IL,574,3.434,3.549,39.1205,-88.5509,1067,39.12956,-88.56563,,"TA EFFINGHAM TRAVEL CENTER, I-57 & I-70, EXIT 160, Effingham, IL",1,OK,done
7459,TA Morris Travel Center,"I-80, EXIT 112 & SR-47",Morris,IL,290,3.849,3.849,41.3749,-88.4304,1068,,,"ERROR: 403 Denied: {""message"":""Missing Authentication Token""}",,99,ERROR,not done
7466,PILOT #595,"I-57, EXIT 54B & SR-13",Marion,IL,540,3.759,3.759,37.7345,-88.942,1069,37.74006,-88.9581,,"PILOT #595, I-57, EXIT 54B & SR-13, Marion, IL",1,OK,done
7469,PILOT TRAVEL CENTERS #313,"I-70/I-55, EXIT 4 & SR-203",East Saint Louis,IL,540,3.524,3.699,nan,nan,1070,38.65267,-90.13186,,"PILOT TRAVEL CENTERS #313, I-70/I-55, EXIT 4 & SR-203, East Saint Louis, IL",1,OK,done
7471,ROAD RANGER #185,"I-55, EXIT 145 & US-136",Mc Lean,IL,280,3.399,3.449,nan,nan,1071,40.31059,-89.2608,,"ROAD RANGER #185, I-55, EXIT 145 & US-136, Mc Lean, IL",1,OK,done
7482,TA BOISE TRAVEL CENTER,"I-84, EXIT 54",Boise,ID,785,3.77066666,3.77066666,43.6005,-116.2308,1072,43.5717,-116.18896,,"TA BOISE TRAVEL CENTER, I-84, EXIT 54, Boise, ID",1,OK,done
7492,Mobil dba One9 #1365,"I-85, EXIT 70",Cusseta,AL,720,2.999,2.999,32.7876,-85.3057,1073,32.74343,-85.28307,,"Mobil dba One9 #1365, I-85, EXIT 70, Cusseta, AL",1,OK,done
7495,RACETRAC #2574,"I-75, EXIT 237, SR-331 & US-41",Forest Park,GA,18,3.109,3.109,33.6209,-84.359,1074,33.61876,-84.38719,,"RACETRAC #2574, I-75, EXIT 237, SR-331 & US-41, Forest Park, GA",1,OK,done
7504,TEXACO,"I-75, EXIT 306 & SR-140",Adairsville,GA,193,3.10566666,3.10566666,34.3709,-84.9212,1075,34.37755,-84.90972,,"TEXACO, I-75, EXIT 306 & SR-140, Adairsville, GA",1,OK,done
7506,CHAPMANS TRUCK STOP,"I-85 & SR-219, EXIT 13",Lagrange,GA,50,3.91566666,3.91566666,nan,nan,1076,33.03576,-85.02999,,"CHAPMANS TRUCK STOP, I-85 & SR-219, EXIT 13, Lagrange, GA",1,OK,done
7523,EXPRESS STOP FOOD STORE #4644,"I-75, EXIT 181",Pinconning,MI,260,3.639,3.639,43.8573,-83.9638,1077,,,"ERROR: 403 Denied: {""message"":""Missing Authentication Token""}",,99,ERROR,not done
7533,TA WILDWOOD TRAVEL CENTER,"I-75, EXIT 329 & SR-44",Wildwood,FL,225,3.214,3.214,28.7752,-82.0075,1078,28.87503,-82.09778,,"TA WILDWOOD TRAVEL CENTER, I-75, EXIT 329 & SR-44, Wildwood, FL",1,OK,done
7534,TA BALDWIN TRAVEL CENTER,"I-10, EXIT 343 & US-301",Jacksonville,FL,75,3.899,3.899,30.3322,-81.6749,1079,30.30295,-81.97906,,"TA BALDWIN TRAVEL CENTER, I-10, EXIT 343 & US-301, Jacksonville, FL",1,OK,done
7535,GIANT #198,"I-4/SR-400, EXIT 7 & US-301/SR-41",Tampa,FL,225,3.25733333,3.25733333,27.9945,-82.4447,1080,27.76726,-82.6383,,"GIANT #198, I-4/SR-400, EXIT 7 & US-301/SR-41, Tampa, FL",1,OK,done
7543,TA NEW HAVEN TRAVEL CENTER,"I-95, EXIT 56",Branford,CT,100,5.069,5.069,nan,nan,1081,41.35502,-73.00691,,"TA NEW HAVEN TRAVEL CENTER, I-95, EXIT 56, Branford, CT",1,OK,done
7545,CITGO,"I-95, EXIT 40",Milford,CT,100,3.399,3.399,nan,nan,1082,41.24034,-73.01902,,"CITGO, I-95, EXIT 40, Milford, CT",1,OK,done
7546,SHELL DBA PILOT DEALER #882,"I-95, EXIT 93 & SR-216",North Stonington,CT,73,4.299,4.299,nan,nan,1083,41.45535,-71.82307,,"SHELL DBA PILOT DEALER #882, I-95, EXIT 93 & SR-216, North Stonington, CT",1,OK,done
7551,PWI #525,"I-70, EXIT 295",Watkins,CO,800,3.139,3.139,39.6984,-104.5773,1084,39.73991,-104.6068,,"PWI #525, I-70, EXIT 295, Watkins, CO",1,OK,done
7552,TA DENVER WEST TRAVEL CENTER,"I-70, EXIT 266",Wheat Ridge,CO,800,3.41566666,3.41566666,39.7728,-105.1028,1085,,,"ERROR: 403 Denied: {""message"":""Missing Authentication Token""}",,99,ERROR,not done
7553,BRUSH TRAVEL PLAZA,"I-76, EXIT 90B & SR-71",Brush,CO,800,3.699,3.699,40.2598,-103.6323,1086,40.00206,-103.59166,,"BRUSH TRAVEL PLAZA, I-76, EXIT 90B & SR-71, Brush, CO",1,OK,done
7574,108 FOOD AND FUEL,"I-40, EXIT 108 & US-66/US-281 BUS",Calumet,OK,483,3.13566666,3.13566666,35.6014,-98.1248,1087,,,"ERROR: 403 Denied: {""message"":""Missing Authentication Token""}",,99,ERROR,not done
7611,LOVES TRAVEL STOP #167,"I-44, EXIT 83",Chickasha,OK,483,3.16566666,3.16566666,35.0409,-97.9474,1088,35.08189,-97.88941,,"LOVES TRAVEL STOP #167, I-44, EXIT 83, Chickasha, OK",1,OK,done
7615,HOPI TRAVEL PLAZA CONOCO DBA ONE9 #1270,"I-40, EXIT 292",Holbrook,AZ,930,3.179,3.219,34.9044,-110.1672,1089,34.97414,-110.08968,,"HOPI TRAVEL PLAZA CONOCO DBA ONE9 #1270, I-40, EXIT 292, Holbrook, AZ",1,OK,done
7617,TUCSON TRUCK TERMINAL,"I-10, EXIT 268",Tucson,AZ,980,3.22233333,3.22233333,32.1541,-110.8787,1090,32.12687,-110.87632,,"TUCSON TRUCK TERMINAL, I-10, EXIT 268, Tucson, AZ",1,OK,done
7622,COPAN TRUCK STOP,US-75,Copan,OK,307,3.119,3.119,36.9004,-95.9253,1091,36.91023,-95.9141,,"COPAN TRUCK STOP, US-75, Copan, OK",1,OK,done
7624,WILLCOX TRUCK PLAZA,"I-10, EXIT 340",Willcox,AZ,980,3.34066666,3.34066666,32.2515,-109.8359,1092,,,"ERROR: 403 Denied: {""message"":""Missing Authentication Token""}",,99,ERROR,not done
7625,LOVES TRAVEL STOP #248,"I-40, EXIT 71",Clinton,OK,483,3.17233333,3.17233333,35.5069,-98.9706,1093,35.51818,-98.87096,,"LOVES TRAVEL STOP #248, I-40, EXIT 71, Clinton, OK",1,OK,done
7627,DAVIS TRADING POST,"I-35, EXIT 55",Davis,OK,569,2.979,2.979,34.4575,-97.1566,1094,34.50285,-97.17152,,"DAVIS TRADING POST, I-35, EXIT 55, Davis, OK",1,OK,done
7629,ARNOLDS TRUCK STOP,US-72/SR-20/SR-157 & CR-59,Tuscumbia,AL,615,3.169,3.169,34.7204,-87.7035,1095,34.70113,-87.6446,,"ARNOLDS TRUCK STOP, US-72/SR-20/SR-157 & CR-59, Tuscumbia, AL",1,OK,done
7635,TA MONTGOMERY TRAVEL CENTER,"I-65, EXIT 168 & US-80/US-82/SR-6/SR-8",Montgomery,AL,720,3.25233333,3.25233333,32.3482,-86.2668,1096,32.3081,-86.37626,,"TA MONTGOMERY TRAVEL CENTER, I-65, EXIT 168 & US-80/US-82/SR-6/SR-8, Montgomery, AL",1,OK,done
7636,PILOT TRAVEL CENTER #76,"I-20 & I-59, EXIT 76",Tuscaloosa,AL,615,3.0490000000000004,3.099,33.2348,-87.5268,1097,33.17339,-87.47872,,"PILOT TRAVEL CENTER #76, I-20 & I-59, EXIT 76, Tuscaloosa, AL",1,OK,done
7655,LOVES TRAVEL STOP #253,I-40 EXIT 7 & SR 30,Erick,OK,483,3.20566666,3.20566666,35.2156,-99.8686,1098,35.22397,-99.86976,,"LOVES TRAVEL STOP #253, I-40 EXIT 7 & SR 30, Erick, OK",1,OK,done
7705,FLYING J TRAVEL PLAZA #610,"I-40, EXIT 53",Kingman,AZ,910,3.88233333,3.88233333,35.217,-114.0105,1099,35.21911,-114.00675,,"FLYING J TRAVEL PLAZA #610, I-40, EXIT 53, Kingman, AZ",1,OK,done
7708,PILOT TRAVEL CENTER #352,"I-75, EXIT 139",Fort Myers,FL,225,3.799,3.799,26.6194,-81.8302,1100,26.65522,-81.80152,,"PILOT TRAVEL CENTER #352, I-75, EXIT 139, Fort Myers, FL",1,OK,done
7715,LONDON AUTO TRUCK CENTER,"I-75, EXIT 41 & SR-80",London,KY,405,3.399,3.399,37.1175,-84.0767,1101,37.14599,-84.1155,,"LONDON AUTO TRUCK CENTER, I-75, EXIT 41 & SR-80, London, KY",1,OK,done
7718,MR FUEL #717,"I-44, EXIT 251",Villa Ridge,MO,540,3.01566666,3.01566666,38.4676,-90.8854,1102,38.47142,-90.8518,,"MR FUEL #717, I-44, EXIT 251, Villa Ridge, MO",1,OK,done
7719,FLYING J TRAVEL PLAZA #674,"I-70, EXIT 188",Warrenton,MO,540,3.11566666,3.11566666,38.8187,-91.1385,1103,,,"ERROR: 403 Denied: {""message"":""Missing Authentication Token""}",,99,ERROR,not done
7721,TRAIL STAR TRUCK STOP,"ST 16, EXIT 213",Glendive,MT,807,3.459,3.459,47.1101,-104.707,1104,47.14033,-104.71219,,"TRAIL STAR TRUCK STOP, ST 16, EXIT 213, Glendive, MT",1,OK,done
7722,SAPP BROS TRAVEL CENTER,"I-80, EXIT 353 & US-81",York,NE,330,3.324,3.324,40.8701,-97.5928,1105,,,"ERROR: 403 Denied: {""message"":""Missing Authentication Token""}",,99,ERROR,not done
7724,FUEL MART #767,US-6 & US-23,Bradner,OH,550,3.40733333,3.40733333,41.3237,-83.4363,1106,41.34173,-83.41784,,"FUEL MART #767, US-6 & US-23, Bradner, OH",1,OK,done
7725,BELL STORES #48,US-30 & SR-94,Dalton,OH,249,3.38566666,3.38566666,40.7995,-81.7033,1107,40.79952,-81.69851,,"BELL STORES #48, US-30 & SR-94, Dalton, OH",1,OK,done
7733,FLYING J TRAVEL PLAZA #723,"I-40, EXIT 76",Amarillo,TX,585,3.26566666,3.26566666,35.1984,-101.8316,1108,35.19371,-101.72347,,"FLYING J TRAVEL PLAZA #723, I-40, EXIT 76, Amarillo, TX",1,OK,done
7746,PILOT TRAVEL CENTER #888,"I-27, EXIT 74",Tulia,TX,585,3.34066666,3.34066666,34.5374,-101.7741,1109,34.5287,-101.79714,,"PILOT TRAVEL CENTER #888, I-27, EXIT 74, Tulia, TX",1,OK,done
7753,LOVES TRAVEL STOP #166,SR-351,Muskogee,OK,560,3.33733333,3.33733333,35.7432,-95.3567,1110,35.74609,-95.30965,,"LOVES TRAVEL STOP #166, SR-351, Muskogee, OK",1,OK,done
7767,FLYING J TRAVEL PLAZA #759,"I-25, EXIT 7",Cheyenne,WY,795,3.709,3.709,41.135,-104.7902,1111,41.09881,-104.85388,,"FLYING J TRAVEL PLAZA #759, I-25, EXIT 7, Cheyenne, WY",1,OK,done
7768,BIG D #30,"I-25/US-87, EXIT 9 & I-80, EXIT 359C & I-80 BUS/US-30",Cheyenne,WY,795,3.204,3.204,41.135,-104.7902,1112,41.13423,-104.8109,,"BIG D #30, I-25/US-87, EXIT 9 & I-80, EXIT 359C & I-80 BUS/US-30, Cheyenne, WY",1,OK,done
7792,FLYING J TRAVEL PLAZA #630,"I-75/SR-401, EXIT 201 & SR-36",Jackson,GA,67,3.384,3.384,33.292,-83.9679,1113,33.20749,-84.06366,,"FLYING J TRAVEL PLAZA #630, I-75/SR-401, EXIT 201 & SR-36, Jackson, GA",1,OK,done
7798,CIRCLE K #2745100,"I-95, EXIT 7",Woodbine,GA,75,3.23233333,3.23233333,30.9598,-81.7176,1114,,,"ERROR: 403 Denied: {""message"":""Missing Authentication Token""}",,99,ERROR,not done
7825,PILOT TRAVEL CENTERS #356,"I-65, EXIT 121",Shepherdsville,KY,415,3.609,3.609,37.9813,-85.7007,1115,38.06537,-85.69345,,"PILOT TRAVEL CENTERS #356, I-65, EXIT 121, Shepherdsville, KY",1,OK,done
7838,PILOT #581,"US-52/SR-55, & 117TH ST, MM300",Inver Grove Heights,MN,515,3.579,3.579,44.8247,-93.0596,1116,44.79371,-93.0373,,"PILOT #581, US-52/SR-55, & 117TH ST, MM300, Inver Grove Heights, MN",1,OK,done
7871,STRIPES 7FLEET #42454,"US-60, US-70 & US-84",Texico,NM,700,3.829,3.829,34.3897,-103.0513,1117,34.38867,-103.05681,,"STRIPES 7FLEET #42454, US-60, US-70 & US-84, Texico, NM",1,OK,done
7873,One9 #387,"I-80, EXIT 280 & SR- 278",Carlin,NV,835,3.439,3.439,40.719,-116.1081,1118,40.71687,-116.11719,,"One9 #387, I-80, EXIT 280 & SR- 278, Carlin, NV",1,OK,done
7886,PETRO STOPPING CENTER #357,"I-70, EXIT 156B & US-40",New Paris,OH,317,3.48733333,3.48733333,39.8565,-84.792,1119,39.83478,-84.81119,,"PETRO STOPPING CENTER #357, I-70, EXIT 156B & US-40, New Paris, OH",1,OK,done
7930,I 24 TRUCK PLAZA,"I-24, EXIT 114 & US-41",Manchester,TN,460,3.099,3.099,35.463,-86.0774,1120,35.48126,-86.08783,,"I 24 TRUCK PLAZA, I-24, EXIT 114 & US-41, Manchester, TN",1,OK,done
7946,PILOT TRAVEL CENTERS #289,"I-90/I-39, EXIT 158 & I-43/SR-81, EXIT 1",Beloit,WI,520,3.799,3.799,42.523,-89.0184,1121,,,"ERROR: 403 Denied: {""message"":""Missing Authentication Token""}",,99,ERROR,not done
7959,SPF #45,"I-25/US-87, EXIT 7 & US-212",Cheyenne,WY,795,3.22566666,3.22566666,41.135,-104.7902,1122,41.10221,-104.80071,,"SPF #45, I-25/US-87, EXIT 7 & US-212, Cheyenne, WY",1,OK,done
8840,LOVES TRAVEL STOP #211,"I-35, EXIT 120",Oklahoma City,OK,483,3.25566666,3.25566666,35.4676,-97.5136,1123,35.5941,-97.43668,,"LOVES TRAVEL STOP #211, I-35, EXIT 120, Oklahoma City, OK",1,OK,done
8895,PAULS VALLEY TRAVEL CENTER,"I-35, EXIT 72  & SR-19",Pauls Valley,OK,569,2.999,2.999,34.7231,-97.2281,1124,,,"ERROR: 403 Denied: {""message"":""Missing Authentication Token""}",,99,ERROR,not done
8927,LOVES TRAVEL STOP #219,"I-40, EXIT 200",Seminole,OK,560,3.36233333,3.36233333,35.2348,-96.6493,1125,35.38164,-96.67082,,"LOVES TRAVEL STOP #219, I-40, EXIT 200, Seminole, OK",1,OK,done
8936,CIRCLE K #107,US-220 & CR-902,Ridgeway,VA,65,3.399,3.399,36.5781,-79.8583,1126,36.60019,-79.86288,,"CIRCLE K #107, Ridgeway, VA",3,OK,done
8948,PARK N PUMP CIRCLE C,"I-15, EXIT 222",Nephi,UT,835,3.449,3.449,39.7069,-111.8326,1127,,,"ERROR: 403 Denied: {""message"":""Missing Authentication Token""}",,99,ERROR,not done
8961,FLYING J TRAVEL PLAZA #736,"I-20, EXIT 42 & US-285",Pecos,TX,710,3.46566666,3.46566666,nan,nan,1128,31.40075,-103.4863,,"FLYING J TRAVEL PLAZA #736, I-20, EXIT 42 & US-285, Pecos, TX",1,OK,done
8977,LOVES TRAVEL STOP #168,"I-44, EXIT 20",Walters,OK,253,3.194,3.194,34.3612,-98.3568,1129,34.37013,-98.40956,,"LOVES TRAVEL STOP #168, I-44, EXIT 20, Walters, OK",1,OK,done
8987,LOVES TRAVEL STOP #255,"I-40, EXIT 287 & SR-100",Webbers Falls,OK,645,3.789,3.789,35.5105,-95.1601,1130,35.51265,-95.13856,,"LOVES TRAVEL STOP #255, I-40, EXIT 287 & SR-100, Webbers Falls, OK",1,OK,done
9160,PILOT TRAVEL CENTERS #912,"I-80, EXIT 300 & SR-40D",Wood River,NE,330,3.28233333,3.28233333,40.8196,-98.6041,1131,40.75912,-98.59992,,"PILOT TRAVEL CENTERS #912, I-80, EXIT 300 & SR-40D, Wood River, NE",1,OK,done
9161,TREXLER PLAZA TRUCK STOP,I-78/US-22,Allentown,PA,160,3.63233333,3.63233333,40.5961,-75.4756,1132,40.59353,-75.58997,,"TREXLER PLAZA TRUCK STOP, I-78/US-22, Allentown, PA",1,OK,done
9206,CIRCLE K #4707005,US-2 & SR-4,Farmington,ME,170,3.899,3.899,nan,nan,1133,44.67347,-70.15451,,"CIRCLE K #4707005, US-2 & SR-4, Farmington, ME",1,OK,done
9216,309 TRUCK STOP,SR-309,Coopersburg,PA,90,3.759,3.759,40.5102,-75.3915,1134,40.49308,-75.38221,,"309 TRUCK STOP, SR-309, Coopersburg, PA",1,OK,done
9241,7-ELEVEN #40286,"I-76,  EXIT 23/312",Elverson,PA,160,3.889,3.889,40.1559,-75.8304,1135,40.15661,-75.8377,,"7-ELEVEN #40286, I-76,  EXIT 23/312, Elverson, PA",1,OK,done
9280,ONVO TRAVEL PLAZA - LAKEWOOD,"I-84, EXIT 20 & SR-507",Greentown,PA,200,3.54566666,3.54566666,nan,nan,1136,41.34346,-75.31215,,"ONVO TRAVEL PLAZA - LAKEWOOD, I-84, EXIT 20 & SR-507, Greentown, PA",1,OK,done
9289,ONVO EXPRESS,"I-81, EXIT 217 & SR-547",Harford,PA,200,3.609,3.609,41.7834,-75.7036,1137,41.76522,-75.75169,,"ONVO EXPRESS, I-81, EXIT 217 & SR-547, Harford, PA",1,OK,done
9340,LANCASTER TRAVEL PLAZA,US-30,Ronks,PA,208,3.899,3.899,40.0267,-76.171,1138,40.01985,-76.18143,,"LANCASTER TRAVEL PLAZA, US-30, Ronks, PA",1,OK,done
9354,BFS FOODS TRUCK PLAZA,"I-79, EXIT 1",Mount Morris,PA,165,4.499,4.499,39.7342,-80.0755,1139,39.73378,-80.05642,,"BFS FOODS TRUCK PLAZA, I-79, EXIT 1, Mount Morris, PA",1,OK,done
9365,FLYING J TRAVEL PLAZA #713,"I-95, EXIT 181",Latta,SC,63,3.349,3.349,34.339,-79.4337,1140,34.34009,-79.53229,,"FLYING J TRAVEL PLAZA #713, I-95, EXIT 181, Latta, SC",1,OK,done
9381,SCOTT FUEL TRAVEL PLAZA,"I-81, EXIT 199",Dalton,PA,200,3.599,3.599,41.5382,-75.739,1141,,,"ERROR: 403 Denied: {""message"":""Missing Authentication Token""}",,99,ERROR,not done
9382,PILOT TRAVEL CENTERS #286,"I-70, EXIT 10 & SR-127",Eaton,OH,317,3.46233333,3.46233333,39.7506,-84.6342,1142,39.83164,-84.63035,,"PILOT TRAVEL CENTERS #286, I-70, EXIT 10 & SR-127, Eaton, OH",1,OK,done
9383,PILOT TRAVEL CENTERS #285,"I-70, EXIT 126 & SR-37",Hebron,OH,315,3.44566666,3.44566666,39.9644,-82.4898,1143,39.94562,-82.53634,,"PILOT TRAVEL CENTERS #285, I-70, EXIT 126 & SR-37, Hebron, OH",1,OK,done
9386,PETRO STOPPING CENTER #325,"I-75,  EXIT 167",North Baltimore,OH,550,3.27066666,3.27066666,41.1803,-83.6695,1144,41.17297,-83.64662,,"PETRO STOPPING CENTER #325, I-75,  EXIT 167, North Baltimore, OH",1,OK,done
9403,PILOT TRAVEL CENTERS #280,"I-78, EXIT 7 & SR-173",Bloomsbury,NJ,105,3.809,3.809,40.6537,-75.084,1145,40.65445,-75.08417,,"PILOT TRAVEL CENTERS #280, I-78, EXIT 7 & SR-173, Bloomsbury, NJ",1,OK,done
9415,7-ELEVEN #40287,"I-76, EXIT 24A/326",Wayne,PA,160,3.889,3.889,40.0409,-75.3945,1146,41.8412,-75.42918,,"7-ELEVEN #40287, I-76, EXIT 24A/326, Wayne, PA",1,OK,done
9423,PETRO STOPPING CENTER #318,"I-70, EXIT 148",Kingdom City,MO,540,3.05733333,3.05733333,38.9473,-91.9389,1147,38.94091,-91.94003,,"PETRO STOPPING CENTER #318, I-70, EXIT 148, Kingdom City, MO",1,OK,done
9449,CORNER PANTRY #127,"I-26, EXIT 115 & US-321",West Columbia,SC,135,3.41233333,3.41233333,33.9932,-81.0936,1148,33.9302,-81.07661,,"CORNER PANTRY #127, I-26, EXIT 115 & US-321, West Columbia, SC",1,OK,done
9451,TA BETO JUNCTION TRAVEL CENTER,"I-35, EXIT 155 & US-75",Lebo,KS,336,3.23066666,3.23066666,38.4156,-95.8622,1149,38.42668,-95.72844,,"TA BETO JUNCTION TRAVEL CENTER, I-35, EXIT 155 & US-75, Lebo, KS",1,OK,done
9467,TA PORTER TRAVEL CENTERS,"I-94, EXIT 22B & US-20",Chesterton,IN,365,3.849,3.849,41.5997,-87.055,1150,41.63161,-87.06848,,"TA PORTER TRAVEL CENTERS, I-94, EXIT 22B & US-20, Chesterton, IN",1,OK,done
9468,TA LAKE STATION,"I-80 & I-94, EXIT 15B",Lake Station,IN,365,3.849,3.849,41.5729,-87.2599,1151,41.59286,-87.23753,,"TA LAKE STATION, I-80 & I-94, EXIT 15B, Lake Station, IN",1,OK,done
9469,TA EXPRESS COWPENS #477,"I-85, EXIT 83 & SR-110",Cowpens,SC,210,3.399,3.399,35.0186,-81.8041,1152,35.04084,-81.81531,,"TA EXPRESS COWPENS #477, I-85, EXIT 83 & SR-110, Cowpens, SC",1,OK,done
9485,PILOT TRAVEL CENTER #4559,"I-20, EXIT 26",Villa Rica,GA,18,3.419,3.449,33.7294,-84.9177,1153,33.72171,-84.90269,,"PILOT TRAVEL CENTER #4559, I-20, EXIT 26, Villa Rica, GA",1,OK,done
9513,CIRCLE K #2705350,"I-20, EXIT 5 & US-25",North Augusta,SC,135,3.159,3.159,33.5214,-81.9547,1154,33.5679,-81.92598,,"CIRCLE K #2705350, I-20, EXIT 5 & US-25, North Augusta, SC",1,OK,done
9525,SCOTCHMAN #3891,"I-77, EXIT 65 & SR-9",Richburg,SC,46,3.109,3.109,34.7168,-81.0196,1155,34.71598,-81.00528,,"SCOTCHMAN #3891, I-77, EXIT 65 & SR-9, Richburg, SC",1,OK,done
9528,GO MART FOOD STORE #43,"I-64, EXIT 39 & SR-34",Teays,WV,44,3.499,3.499,nan,nan,1156,38.45374,-81.93755,,"GO MART FOOD STORE #43, I-64, EXIT 39 & SR-34, Teays, WV",1,OK,done
9542,SPINX #266,"I-26, EXIT 104",Columbia,SC,135,3.13233333,3.13233333,34.0378,-80.9036,1157,34.07074,-81.14567,,"SPINX #266, I-26, EXIT 104, Columbia, SC",1,OK,done
9550,Mauston Interstate BP,"I-90/I-94, EXIT 69 & SR-82",Mauston,WI,420,3.22733333,3.22733333,43.7995,-90.0775,1158,43.79688,-90.07161,,"Mauston Interstate BP, I-90/I-94, EXIT 69 & SR-82, Mauston, WI",1,OK,done
9553,LYNDON STATION BP,I-90 & 94 EXIT 79,Lyndon Station,WI,420,3.177,3.177,43.7088,-89.8937,1159,43.71907,-89.8966,,"LYNDON STATION BP, I-90 & 94 EXIT 79, Lyndon Station, WI",1,OK,done
9554,BIG D OIL #2,US-85 & US-34,Belle Fourche,SD,506,3.22733333,3.22733333,44.664,-103.8564,1160,44.67888,-103.85385,,"BIG D OIL #2, US-85 & US-34, Belle Fourche, SD",1,OK,done
9614,DITTYS,"I-90, EXIT 284 & SR-45",Kimball,SD,455,3.089,3.089,43.7468,-98.9569,1161,43.7374,-98.95819,,"DITTYS, I-90, EXIT 284 & SR-45, Kimball, SD",1,OK,done
9618,FLYING J #477,US-75,Anna,TX,630,3.239,3.239,33.3472,-96.5508,1162,33.3434,-96.58754,,"FLYING J #477, US-75, Anna, TX",1,OK,done
9638,PILOT TRAVEL CENTERS #62,"I-95, EXIT 170 & SR-327",Florence,SC,46,3.349,3.349,34.178,-79.7898,1163,34.27154,-79.69913,,"PILOT TRAVEL CENTERS #62, I-95, EXIT 170 & SR-327, Florence, SC",1,OK,done
9668,COFFEE CUP FUEL STOP #4,"I-90, EXIT 310 & SR-281",Plankinton,SD,455,3.02733333,3.02733333,43.7155,-98.4837,1164,,,"ERROR: 403 Denied: {""message"":""Missing Authentication Token""}",,99,ERROR,not done
9675,FLYING J TRAVEL PLAZA #722,"I-75 & I-40, EXIT 369",Knoxville,TN,405,3.439,3.439,35.9692,-83.9496,1165,35.8813,-84.23659,,"FLYING J TRAVEL PLAZA #722, I-75 & I-40, EXIT 369, Knoxville, TN",1,OK,done
9699,SPEEDWAY #9400,US-30/US-62 & SR-297,Canton,OH,249,3.369,3.369,40.8078,-81.3676,1166,40.77183,-81.22749,,"SPEEDWAY #9400, US-30/US-62 & SR-297, Canton, OH",1,OK,done
9703,PILOT TRAVEL CENTERS #2,"I-90, EXIT 223 & SR-45",Austinburg,OH,305,3.859,3.859,41.7692,-80.8556,1167,41.78937,-80.85611,,"PILOT TRAVEL CENTERS #2, I-90, EXIT 223 & SR-45, Austinburg, OH",1,OK,done
9712,TA GREENSBORO TRAVEL CENTER,"I-40 & I-85, EXIT 138 & SR-61",Whitsett,NC,65,3.99733333,3.99733333,36.0784,-79.5721,1168,36.05141,-79.84712,,"TA GREENSBORO TRAVEL CENTER, Whitsett, NC",3,OK,done
9713,TA Express Vermillion #275,"I-29, EXIT 26 & SR-50",Burbank,SD,572,3.099,3.099,42.7461,-96.8326,1169,42.78562,-96.78577,,"TA Express Vermillion #275, I-29, EXIT 26 & SR-50, Burbank, SD",1,OK,done
9717,COFFEE CUP FUEL STOP #8,"I-90, EXIT 212 & SR-83",Vivian,SD,455,3.09733333,3.09733333,43.9273,-100.3011,1170,,,"ERROR: 403 Denied: {""message"":""Missing Authentication Token""}",,99,ERROR,not done
9724,One9 #1339,"I-81,  EXIT 34",Parish,NY,190,3.799,3.799,nan,nan,1171,43.42286,-76.12024,,"One9 #1339, I-81,  EXIT 34, Parish, NY",1,OK,done
9746,TA MILL CITY TRAVEL CENTER,"I-80, EXIT 151",Imlay,NV,966,3.794,3.794,40.6581,-118.1441,1172,,,"ERROR: 403 Denied: {""message"":""Missing Authentication Token""}",,99,ERROR,not done
9747,GOOD TO GO TRAVEL CENTER,"I-80, EXIT 353 & US-81",York,NE,350,3.31733333,3.31733333,40.8701,-97.5928,1173,,,"ERROR: 403 Denied: {""message"":""Missing Authentication Token""}",,99,ERROR,not done
9763,DELUXE TRUCK STOP,SR-759,Saint Joseph,MO,400,3.149,3.149,nan,nan,1174,39.7275,-94.868,,"DELUXE TRUCK STOP, SR-759, Saint Joseph, MO",1,OK,done
9783,KANGAROO CROSSING #1101,"I-55, EXIT 144",Pickens,MS,705,3.099,3.099,32.8913,-89.9696,1175,32.92149,-89.99736,,"KANGAROO CROSSING #1101, I-55, EXIT 144, Pickens, MS",1,OK,done
9803,TA KNOXVILLE WEST TRAVEL CENTER,"I-40 & I-75, EXIT 369",Knoxville,TN,405,3.42566666,3.42566666,35.9692,-83.9496,1176,35.9633,-83.9181,,"TA KNOXVILLE WEST TRAVEL CENTER, I-40 & I-75, EXIT 369, Knoxville, TN",1,OK,done
9808,TA ANN ARBOR TRAVEL CENTER,"I-94, EXIT 167",Dexter,MI,325,3.619,3.699,42.3319,-83.8803,1177,,,"ERROR: 403 Denied: {""message"":""Missing Authentication Token""}",,99,ERROR,not done
9812,LEES FOOD MART #1398,"I-40, EXIT 398",Knoxville,TN,405,3.299,3.299,35.9692,-83.9496,1178,36.00627,-83.77322,,"LEES FOOD MART #1398, I-40, EXIT 398, Knoxville, TN",1,OK,done
9818,CIRCLE K #4707002,"I-95, EXIT 157",Newport,ME,170,3.899,3.899,nan,nan,1179,44.82221,-69.26677,,"I-95 EXIT 157, Newport, ME",4,OK,done
9821,PILOT TRAVEL CENTERS #52,"I-24, EXIT 64",La Vergne,TN,460,3.47233333,3.47233333,36.02,-86.5586,1180,35.99793,-86.59485,,"PILOT TRAVEL CENTERS #52, I-24, EXIT 64, La Vergne, TN",1,OK,done
9842,Petes #03,US-59 & US-54,Moran,KS,336,3.26566666,3.26566666,37.9166,-95.1716,1181,37.9216,-95.17004,,"Petes #03, US-59 & US-54, Moran, KS",1,OK,done
9843,MAPLE HILL TRUCK STOP,"I-70, EXIT 341",Maple Hill,KS,553,3.05233333,3.05233333,39.0855,-96.0278,1182,39.05876,-96.04564,,"MAPLE HILL TRUCK STOP, I-70, EXIT 341, Maple Hill, KS",1,OK,done
9851,KWIK STOP #86,US-151/US-52/US-61,Dubuque,IA,335,3.489,3.489,42.5002,-90.707,1183,42.47309,-90.66771,,"KWIK STOP #86, US-151/US-52/US-61, Dubuque, IA",1,OK,done
9855,PILOT TRAVEL CENTER #37,"I-65, EXIT 95",Whiteland,IN,375,3.959,3.959,39.5505,-86.0739,1184,39.55149,-86.04617,,"PILOT TRAVEL CENTER #37, I-65, EXIT 95, Whiteland, IN",1,OK,done
9860,PARADISE AUTO TRUCK PLAZA,US-31,Rochester,IN,370,3.40566666,3.40566666,41.0591,-86.1959,1185,41.04479,-86.22977,,"PARADISE AUTO TRUCK PLAZA, Rochester, IN",3,OK,done
9862,PILOT TRAVEL CENTER #271,"I-80, EXIT 6",Gary,IN,365,3.814,3.829,41.5905,-87.3473,1186,41.56547,-87.40296,,"PILOT TRAVEL CENTER #271, I-80, EXIT 6, Gary, IN",1,OK,done
9887,7-ELEVEN #40354,"I-95, EXIT 173",Palm Bay,FL,140,3.21566666,3.21566666,27.9631,-80.6593,1187,26.36031,-80.08789,,"7-ELEVEN #40354, I-95, EXIT 173, Palm Bay, FL",1,OK,done
9941,FLYING J TRAVEL PLAZA #609,"I-10, EXIT 208-A",Eloy,AZ,930,3.45233333,3.45233333,32.747,-111.5992,1188,32.7324,-111.54989,,"FLYING J TRAVEL PLAZA #609, I-10, EXIT 208-A, Eloy, AZ",1,OK,done
9945,CIRCLE K #2706690,"I-85/US-29, EXIT 62 & US-280/US-431/SR-38/SR-1",Opelika,AL,50,2.999,2.999,32.6612,-85.3769,1189,32.62447,-85.27748,,"CIRCLE K #2706690, I-85/US-29, EXIT 62 & US-280/US-431/SR-38/SR-1, Opelika, AL",1,OK,done
9959,FLYING J #876,"I-95, EXIT 104",Ruther Glen,VA,180,3.619,3.619,nan,nan,1190,37.93837,-77.4727,,"FLYING J #876, I-95, EXIT 104, Ruther Glen, VA",1,OK,done
9962,STRIPES #40673,"I-45, EXIT 179",Mcallen,TX,639,3.289,3.289,nan,nan,1191,26.20087,-98.21803,,"STRIPES #40673, I-45, EXIT 179, Mcallen, TX",1,OK,done
9971,TA DANSVILLE TRAVEL CENTER,"I-390 & COMMERCE, EXIT 5",Dansville,NY,190,4.499,4.499,42.5625,-77.6968,1192,42.54961,-77.70092,,"TA DANSVILLE TRAVEL CENTER, I-390 & COMMERCE, EXIT 5, Dansville, NY",1,OK,done
9973,BOLLA MARKET,"I-287, EXIT 66",Mahwah,NJ,115,3.53233333,3.53233333,nan,nan,1193,41.10025,-74.16527,,"BOLLA MARKET, I-287, EXIT 66, Mahwah, NJ",1,OK,done
9990,JIMS  BEST STOP,US-45 & US-64,Selmer,TN,435,3.174,3.174,35.1708,-88.5955,1194,35.15529,-88.57859,,"JIMS  BEST STOP, US-45 & US-64, Selmer, TN",1,OK,done
9995,LOVES TRAVEL STOP #411,"I-35 & I-80, EXIT 125 & US-6",Clive,IA,320,3.34066666,3.34066666,41.6147,-93.798,1195,41.61334,-93.78076,,"LOVES TRAVEL STOP #411, I-35 & I-80, EXIT 125 & US-6, Clive, IA",1,OK,done
9997,Circle K #2723687,"I-20, EXIT 11 & US-27/SR-1",Bremen,GA,193,3.08733333,3.08733333,33.7085,-85.1495,1196,33.68775,-85.15097,,"Circle K #2723687, I-20, EXIT 11 & US-27/SR-1, Bremen, GA",1,OK,done
10006,FLINT HILLS FUEL MART,US-50 & US-77,Florence,KS,336,3.499,3.499,38.2428,-96.9289,1197,38.23011,-96.94584,,"FLINT HILLS FUEL MART, US-50 & US-77, Florence, KS",1,OK,done
10007,CIRCLE K #2705346,SR-307,Savannah,GA,195,3.03233333,3.03233333,32.0286,-81.1821,1198,32.00703,-81.22748,,"CIRCLE K #2705346, SR-307, Savannah, GA",1,OK,done
10014,Sudden Service #6604,"I-40, EXIT 212",Nashville,TN,460,3.399,3.399,36.1715,-86.7842,1199,36.17827,-86.82387,,"Sudden Service #6604, I-40, EXIT 212, Nashville, TN",1,OK,done
10015,Loves Travel Stop #429,"I-65 & I-24, EXIT 87",Nashville,TN,460,3.46233333,3.46233333,36.1715,-86.7842,1200,36.20559,-86.77167,,"Loves Travel Stop #429, I-65 & I-24, EXIT 87, Nashville, TN",1,OK,done
10020,Maplefields,"US-4, EXIT 2 & SR-22A",Fair Haven,VT,39,3.599,3.599,nan,nan,1201,43.59059,-73.26546,,"Maplefields, US-4, EXIT 2 & SR-22A, Fair Haven, VT",1,OK,done
10024,MILLERS TRAVEL CENTER,US-6 & US-50,Wellington,UT,835,3.659,3.659,39.5358,-110.7344,1202,39.54228,-110.73497,,"MILLERS TRAVEL CENTER, US-6 & US-50, Wellington, UT",1,OK,done
10028,GOOD TO GO #10,US-35,Winamac,IN,290,3.914,3.914,41.0535,-86.6037,1203,41.07287,-86.60492,,"GOOD TO GO #10, US-35, Winamac, IN",1,OK,done
10030,LOVES TRAVEL STOP #715,I-77 EXIT 58 & SR-666 & US-52,Bastian,VA,185,3.59733333,3.59733333,37.1535,-81.1525,1204,37.17802,-81.14051,,"LOVES TRAVEL STOP #715, I-77 EXIT 58 & SR-666 & US-52, Bastian, VA",1,OK,done
10033,SHELL,"I-95, EXIT 133 & US-17 BUS",Fredericksburg,VA,180,3.25566666,3.25566666,38.2992,-77.4872,1205,38.36358,-77.46962,,"SHELL, I-95, EXIT 133 & US-17 BUS, Fredericksburg, VA",1,OK,done
10047,TOWN PUMP FOOD STORE #8929,"I-15, EXIT 339",Conrad,MT,815,3.599,3.599,48.1741,-111.9467,1206,48.17786,-111.94107,,"TOWN PUMP FOOD STORE #8929, I-15, EXIT 339, Conrad, MT",1,OK,done
10053,BECKS #27,"I-39/US-51, EXIT 72 & US-34",Mendota,IL,270,3.269,3.269,41.5553,-89.1041,1207,41.54842,-89.15231,,"BECKS #27, I-39/US-51, EXIT 72 & US-34, Mendota, IL",1,OK,done
10057,Flying J Travel Plaza #649,"I-465, EXIT 4",Indianapolis,IN,375,3.899,3.899,39.7771,-86.1458,1208,39.72535,-86.26433,,"Flying J Travel Plaza #649, I-465, EXIT 4, Indianapolis, IN",1,OK,done
10058,CITGO,US-431/SR-1 & SR-27,Abbeville,AL,10,3.399,3.399,31.5664,-85.2528,1209,31.56331,-85.25077,,"CITGO, US-431/SR-1 & SR-27, Abbeville, AL",1,OK,done
10065,ROAD MART,US-71/US-59,Ashdown,AR,723,3.299,3.299,33.6746,-94.1265,1210,33.67153,-94.12913,,"ROAD MART, US-71/US-59, Ashdown, AR",1,OK,done
10077,FLYING J TRAVEL PLAZA #607,"I-55, EXIT 4 & I-40, EXIT 280",West Memphis,AR,435,3.15066666,3.15066666,35.153,-90.1996,1211,35.1391,-90.09937,,"FLYING J TRAVEL PLAZA #607, I-55, EXIT 4 & I-40, EXIT 280, West Memphis, AR",1,OK,done
10085,EL CENTRO TRAVEL CENTER,"I-8, EXIT 115 & SR-86",El Centro,CA,900,4.499,4.499,32.7865,-115.5595,1212,32.79298,-115.55235,,"EL CENTRO TRAVEL CENTER, I-8, EXIT 115 & SR-86, El Centro, CA",1,OK,done
10101,PILOT TRAVEL CENTERS #65,"I-20, EXIT 194",Augusta,GA,135,3.859,3.859,33.3645,-82.0708,1213,33.52349,-82.03074,,"PILOT TRAVEL CENTERS #65, Augusta, GA",3,OK,done
10104,GEO H GREEN OIL,"I-85/SR-403, EXIT 41 & US-27 ALT",Newnan,GA,18,3.199,3.199,33.3767,-84.7761,1214,33.39817,-84.82829,,"GEO H GREEN OIL, I-85/SR-403, EXIT 41 & US-27 ALT, Newnan, GA",1,OK,done
10109,GIT N GO CONVENIENCE STORE #34,"US-30, EXIT 185 & SR-14",Marshalltown,IA,320,3.119,3.119,42.0343,-92.9068,1215,42.00629,-92.91151,,"GIT N GO CONVENIENCE STORE #34, US-30, EXIT 185 & SR-14, Marshalltown, IA",1,OK,done
10110,JACKSON'S FOODS DBA ONE9 #1427,"I-84, EXIT 36",Nampa,ID,785,3.37066666,3.37066666,43.5844,-116.5638,1216,,,"ERROR: 403 Denied: {""message"":""Missing Authentication Token""}",,99,ERROR,not done
10116,Petro Stopping Center #359,"I-39/US-51, EXIT 99 & SR-38",Rochelle,IL,520,3.759,3.759,41.9197,-89.0629,1217,41.9223,-89.06736,,"Petro Stopping Center #359, I-39/US-51, EXIT 99 & SR-38, Rochelle, IL",1,OK,done
10122,LOVES TRAVEL STOP #417,"I-80 & I-94, EXIT 9A",Gary,IN,365,3.809,3.809,41.5905,-87.3473,1218,41.5618,-87.35663,,"LOVES TRAVEL STOP #417, I-80 & I-94, EXIT 9A, Gary, IN",1,OK,done
10126,PILOT TRAVEL CENTERS #152,"I-65, EXIT 16 & MEMPHIS RD",Memphis,IN,415,3.959,3.959,38.4891,-85.7679,1219,38.49321,-85.77266,,"PILOT TRAVEL CENTERS #152, I-65, EXIT 16 & MEMPHIS RD, Memphis, IN",1,OK,done
10128,PETES #20,US-54/SR-7 & US-69,Fort Scott,KS,307,3.199,3.199,37.8283,-94.7038,1220,37.83453,-94.7067,,"PETES #20, US-54/SR-7 & US-69, Fort Scott, KS",1,OK,done
10135,YESWAY #1116,"I-35, EXIT 60",Mcpherson,KS,434,3.259,3.259,nan,nan,1221,38.36958,-97.65203,,"YESWAY #1116, I-35, EXIT 60, Mcpherson, KS",1,OK,done
10142,PILOT TRAVEL CENTERS #438,"I-65, EXIT 6 & SR-100",Franklin,KY,415,3.169,3.169,36.7177,-86.5595,1222,36.66257,-86.55408,,"PILOT TRAVEL CENTERS #438, I-65, EXIT 6 & SR-100, Franklin, KY",1,OK,done
10144,PILOT TRAVEL CENTERS #358,"I-24 & US-305, EXIT 3",Paducah,KY,490,3.699,3.699,37.0711,-88.644,1223,37.09751,-88.69116,,"PILOT TRAVEL CENTERS #358, I-24 & US-305, EXIT 3, Paducah, KY",1,OK,done
10146,PILOT TRAVEL CENTERS #437,"I-75, EXIT 11 & SR-92",Williamsburg,KY,410,3.609,3.609,36.7393,-84.1647,1224,36.72209,-84.16808,,"PILOT TRAVEL CENTERS #437, I-75, EXIT 11 & SR-92, Williamsburg, KY",1,OK,done
10150,PILOT TRAVEL CENTERS #300,"I-12, EXIT 40",Hammond,LA,725,3.23233333,3.23233333,30.5061,-90.4563,1225,30.47758,-90.45685,,"PILOT TRAVEL CENTERS #300, I-12, EXIT 40, Hammond, LA",1,OK,done
10154,I 49 TRUCK STOP,"I-49, EXIT 23 & US-167",Opelousas,LA,600,3.199,3.199,30.5252,-92.0816,1226,30.53304,-92.08258,,"I 49 TRUCK STOP, I-49, EXIT 23 & US-167, Opelousas, LA",1,OK,done
10157,J AND  H OIL,"US-131, EXIT 72",Byron Center,MI,344,3.5490000000000004,3.599,42.8121,-85.7279,1227,42.77916,-85.66894,,"J AND  H OIL, US-131, EXIT 72, Byron Center, MI",1,OK,done
10161,SPEEDWAY #8740,"I-69, EXIT 87",Dewitt,MI,342,3.679,3.759,nan,nan,1228,42.82529,-84.54214,,"SPEEDWAY #8740, I-69, EXIT 87, Dewitt, MI",1,OK,done
10168,Express Stop,"I-94, EXIT 145",Jackson,MI,385,3.589,3.589,42.2431,-84.4038,1229,42.23944,-84.35416,,"Express Stop, Jackson, MI",3,OK,done
10172,EXPRESS STOP FOOD STORE #4647,"I-75, EXIT 151 & SR- 81",Saginaw,MI,260,3.399,3.399,43.4199,-83.9501,1230,43.41527,-83.9668,,"EXPRESS STOP FOOD STORE #4647, I-75, EXIT 151 & SR- 81, Saginaw, MI",1,OK,done
10181,QUIKTRIP #611,I-55 EXIT 178,Herculaneum,MO,540,2.99066666,2.99066666,38.2579,-90.3948,1231,38.25442,-90.40073,,"QUIKTRIP #611, I-55 EXIT 178, Herculaneum, MO",1,OK,done
10184,CIRCLE K #2721544,"I-55, EXIT 243 & US-278/SR-6",Batesville,MS,435,3.309,3.309,34.3148,-89.9249,1232,34.31176,-89.94801,,"CIRCLE K #2721544, I-55, EXIT 243 & US-278/SR-6, Batesville, MS",1,OK,done
10192,INTERSTATE STATION #8,"I-55, EXIT 78                 ",Natchez,MS,760,3.399,3.399,31.5437,-91.3867,1233,31.29192,-90.47865,,"INTERSTATE STATION #8, I-55, EXIT 78                 , Natchez, MS",1,OK,done
20000,BIG BOYS TRUCK STOP,"I-95, EXIT 105",Kenly,NC,205,3.299,3.299,35.5885,-78.137,1234,35.58249,-78.1471,,"BIG BOYS TRUCK STOP, I-95, EXIT 105, Kenly, NC",1,OK,done
20003,PILOT #7976,"I-77, EXIT 42",Troutman,NC,46,3.659,3.659,35.6873,-80.883,1235,35.67,-80.85853,,"PILOT #7976, I-77, EXIT 42, Troutman, NC",1,OK,done
20006,CENEX C STORE,US-52,Kenmare,ND,452,3.46733333,3.46733333,48.6729,-102.0721,1236,48.66826,-102.06356,,"CENEX C STORE, US-52, Kenmare, ND",1,OK,done
20009,BIG SPRINGS TRUCK AND TRAVEL,"I-80, EXIT 107",Big Springs,NE,475,3.074,3.074,41.0609,-102.0745,1237,41.05172,-102.0703,,"BIG SPRINGS TRUCK AND TRAVEL, I-80, EXIT 107, Big Springs, NE",1,OK,done
20011,CUBBYS #111,US-81,Norfolk,NE,470,3.209,3.209,42.0324,-97.4217,1238,42.03372,-97.42701,,"CUBBYS #111, US-81, Norfolk, NE",1,OK,done
20012,FLYING J TRAVEL PLAZA #686,"I-80, EXIT 432",Gretna,NE,319,3.28233333,3.28233333,41.1314,-96.245,1239,41.09174,-96.25472,,"FLYING J TRAVEL PLAZA #686, I-80, EXIT 432, Gretna, NE",1,OK,done
20014,SIMONS EXIT 16,"I-89, EXIT 16",Enfield,NH,39,3.499,3.499,nan,nan,1240,,,"ERROR: 403 Denied: {""message"":""Missing Authentication Token""}",,99,ERROR,not done
20019,SUNOCO,"I-295, EXIT 2C & SR-140",Penns Grove,NJ,150,3.459,3.459,39.7275,-75.4691,1241,39.71417,-75.47594,,"SUNOCO, I-295, EXIT 2C & SR-140, Penns Grove, NJ",1,OK,done
20024,LOVES TRAVEL STOP #259,"I-10 & AIRPORT RD, EXIT 132",Las Cruces,NM,640,3.214,3.214,32.3265,-106.7893,1242,32.26974,-106.92171,,"LOVES TRAVEL STOP #259, I-10 & AIRPORT RD, EXIT 132, Las Cruces, NM",1,OK,done
20027,LOVES TRAVEL STOP #262,"I-40, EXIT 333",Tucumcari,NM,585,3.889,3.889,35.17,-103.7046,1243,35.15884,-103.70121,,"LOVES TRAVEL STOP #262, Tucumcari, NM",3,OK,done
20028,MORTONS TRUCK STOP,"I-15, EXIT 46",North Las Vegas,NV,910,3.399,3.399,36.2883,-115.0888,1244,36.2188,-115.1296,,"MORTONS TRUCK STOP, I-15, EXIT 46, North Las Vegas, NV",1,OK,done
20031,FLYING J TRAVEL PLAZA #770,"I-80, EXIT 176",Winnemucca,NV,966,3.77733333,3.77733333,40.9645,-117.7247,1245,40.96002,-117.74772,,"FLYING J TRAVEL PLAZA #770, I-80, EXIT 176, Winnemucca, NV",1,OK,done
20033,LOVES TRAVEL STOP #772,"I-86 & SR-17, EXIT 37",Bath,NY,190,4.489,4.489,nan,nan,1246,42.37672,-77.36199,,"LOVES TRAVEL STOP #772, I-86 & SR-17, EXIT 37, Bath, NY",1,OK,done
20036,SMOKIN JOES,I-90 EXIT 24,Sanborn,NY,38,3.699,3.699,43.1451,-78.8777,1247,43.14393,-78.92276,,"SMOKIN JOES, I-90 EXIT 24, Sanborn, NY",1,OK,done
20042,FLYING J TRAVEL PLAZA #700,I-80 & I-90 EXIT 71,Perrysburg,OH,550,3.759,3.759,41.5377,-83.6413,1248,41.53988,-83.51188,,"FLYING J TRAVEL PLAZA #700, I-80 & I-90 EXIT 71, Perrysburg, OH",1,OK,done
20043,FRIENDSHIP FOOD MART #70,SR-2 & SR-53,Port Clinton,OH,550,3.939,3.939,41.5094,-82.9385,1249,41.52404,-82.85888,,"FRIENDSHIP FOOD MART #70, SR-2 & SR-53, Port Clinton, OH",1,OK,done
20045,PILOT TRAVEL CENTERS #281,"I-80, EXIT 226",Girard,OH,573,3.45233333,3.45233333,41.1665,-80.6963,1250,41.14035,-80.71892,,"PILOT TRAVEL CENTERS #281, I-80, EXIT 226, Girard, OH",1,OK,done
20049,LOVES TRAVEL STOP #263,"I-44, EXIT 45 & SR-49",Lawton,OK,569,3.21733333,3.21733333,34.6175,-98.4202,1251,34.71374,-98.40171,,"LOVES TRAVEL STOP #263, I-44, EXIT 45 & SR-49, Lawton, OK",1,OK,done
20050,LOVES TRAVEL STOP #260,"I-35, EXIT 106 & SR-9 W",Norman,OK,483,3.254,3.254,35.2335,-97.3471,1252,35.18367,-97.49922,,"LOVES TRAVEL STOP #260, I-35, EXIT 106 & SR-9 W, Norman, OK",1,OK,done
20054,Jacksons Food Stores,"I-84, EXIT 261",La Grande,OR,925,3.687,3.687,45.3242,-118.0865,1253,45.34541,-118.1664,,"Jacksons Food Stores, I-84, EXIT 261, La Grande, OR",1,OK,done
20062,PILOT TRAVEL CENTERS #298,"I-80, EXIT 256 & SR-93",Drums,PA,200,3.97566666,3.97566666,nan,nan,1254,41.02703,-76.08106,,"PILOT TRAVEL CENTERS #298, I-80, EXIT 256 & SR-93, Drums, PA",1,OK,done
20066,KWIK FILL #228,"I-90, EXIT 45 & US-20",North East,PA,240,4.089,4.089,nan,nan,1255,42.2164,-79.832,,"KWIK FILL #228, I-90, EXIT 45 & US-20, North East, PA",1,OK,done
20070,ONVO TRAVEL PLAZA - PROMISED LAND,"I-84, EXIT 26 & SR-390",Tafton,PA,200,3.54566666,3.54566666,nan,nan,1256,41.3627,-75.20084,,"ONVO TRAVEL PLAZA - PROMISED LAND, I-84, EXIT 26 & SR-390, Tafton, PA",1,OK,done
20072,PILOT TRAVEL CENTERS #310,"I-85, EXIT 63 & SR-290",Duncan,SC,210,3.43233333,3.43233333,34.9342,-82.1443,1257,34.92973,-82.12416,,"PILOT TRAVEL CENTERS #310, I-85, EXIT 63 & SR-290, Duncan, SC",1,OK,done
20079,PETRO KINGSTON SPRINGS #349,"I-40, EXIT 188",Kingston Springs,TN,460,3.23233333,3.23233333,36.0842,-87.1039,1258,36.08288,-87.10149,,"PETRO KINGSTON SPRINGS #349, I-40, EXIT 188, Kingston Springs, TN",1,OK,done
20082,GOLDEN EXPRESS TRUCK STOP,US-287/US-81 & CR-1595,Alvord,TX,637,3.049,3.049,33.3569,-97.696,1259,,,"ERROR: 403 Denied: {""message"":""Missing Authentication Token""}",,99,ERROR,not done
20083,FLYING J TRAVEL PLAZA #724,"I-10, EXIT 0",Anthony,TX,640,3.459,3.459,31.9876,-106.5933,1260,31.99694,-106.57978,,"FLYING J TRAVEL PLAZA #724, I-10, EXIT 0, Anthony, TX",1,OK,done
20086,LOVES TRAVEL STOP #609,"I-35, EXIT 471 & US-77",Denton,TX,630,3.24733333,3.24733333,33.2175,-97.1418,1261,33.26314,-97.17939,,"LOVES TRAVEL STOP #609, I-35, EXIT 471 & US-77, Denton, TX",1,OK,done
20105,CEFCO #1050,"I-30, EXIT 146 & US-37",Mount Vernon,TX,723,2.94233333,2.94233333,33.176,-95.2253,1262,33.16219,-95.24476,,"CEFCO #1050, I-30, EXIT 146 & US-37, Mount Vernon, TX",1,OK,done
20108,TEX-BEST #501,"I-37, EXIT 125",Elmendorf,TX,740,2.949,2.949,29.258,-98.3218,1263,29.21219,-98.41473,,"TEX-BEST #501, I-37, EXIT 125, Elmendorf, TX",1,OK,done
20109,PILOT TRAVEL CENTERS #306,"I-10, EXIT 582",San Antonio,TX,740,3.214,3.214,29.4632,-98.5238,1264,29.43977,-98.38062,,"PILOT TRAVEL CENTERS #306, I-10, EXIT 582, San Antonio, TX",1,OK,done
20114,CROSSROADS,"I-10, EXIT 829 & SR-124",Winnie,TX,610,4.249,4.249,29.8167,-94.3807,1265,30.85742,-96.97362,,"CROSSROADS, I-10, EXIT 829 & SR-124, Winnie, TX",1,OK,done
20118,KWIK TRIP #648,"I-94, EXIT 116 & SR-54",Black River Falls,WI,395,3.23733333,3.23733333,44.2981,-90.842,1266,44.29443,-90.83705,,"KWIK TRIP #648, I-94, EXIT 116 & SR-54, Black River Falls, WI",1,OK,done
20119,FREMONT CITGO,US-10 & SR-110,Fremont,WI,444,3.399,3.399,44.2602,-88.8715,1267,44.59785,-90.36949,,"FREMONT CITGO, US-10 & SR-110, Fremont, WI",1,OK,done
20121,GO MART FOOD STORE #50,"I-77/I-64, EXIT 44 & SR-3",Beckley,WV,44,3.599,3.599,37.7877,-81.1841,1268,37.75333,-81.21819,,"GO MART FOOD STORE #50, I-77/I-64, EXIT 44 & SR-3, Beckley, WV",1,OK,done
20129,FLYING J #848- ROAD KING TRUCK,"HIGHWAY 2, EXIT 251",Calgary,AB,50,4.400735465,4.40695023,nan,nan,1269,,,"ERROR: 403 Denied: {""message"":""Missing Authentication Token""}",,99,ERROR,not done
44228,I-69 TRUCKSTOP TRAVEL CENTER,"I-69, EXIT 184 & SR-19",Memphis,MI,342,3.549,3.599,42.8956,-82.7689,1270,,,"ERROR: 403 Denied: {""message"":""Missing Authentication Token""}",,99,ERROR,not done
52040,REBEL TRUCK STOP,"I-5, EXIT 27",Kalama,WA,935,4.499,4.499,46.0164,-122.8402,1271,45.9781,-122.823,,"REBEL TRUCK STOP, I-5, EXIT 27, Kalama, WA",1,OK,done
52048,PILOT TRAVEL CENTERS #302,"I-10, EXIT 13 & CR-30",Theodore,AL,715,3.179,3.199,30.5408,-88.1885,1272,30.5592,-88.2047,,"PILOT TRAVEL CENTERS #302, I-10, EXIT 13 & CR-30, Theodore, AL",1,OK,done
52052,EXPRESSWAY MOBIL,US-63 & US-167,El Dorado,AR,635,3.599,3.599,33.2184,-92.664,1273,33.18808,-92.63482,,"EXPRESSWAY MOBIL, US-63 & US-167, El Dorado, AR",1,OK,done
52065,76 DBA ONE9 #1415,"I-75, EXIT 49",Lake Panasoffkee,FL,225,3.17233333,3.17233333,28.785,-82.1258,1274,28.75373,-82.09926,,"76 DBA ONE9 #1415, I-75, EXIT 49, Lake Panasoffkee, FL",1,OK,done
52067,PETRO STOPPING CENTER #322,"I-285, EXIT 12",Atlanta,GA,18,3.44566666,3.44566666,33.7628,-84.422,1275,33.78618,-84.49043,,"PETRO STOPPING CENTER #322, I-285, EXIT 12, Atlanta, GA",1,OK,done
52070,FRIENDLY EXPRESS #31,US-1 & US-301,Folkston,GA,75,3.099,3.099,30.8392,-82.0073,1276,30.8581,-82.01032,,"FRIENDLY EXPRESS #31, US-1 & US-301, Folkston, GA",1,OK,done
52081,MCCLURE OIL #9,US-31 & SR-18,Kokomo,IN,375,3.839,3.839,40.464,-86.1277,1277,40.58518,-86.07001,,"MCCLURE OIL #9, US-31 & SR-18, Kokomo, IN",1,OK,done
52085,RUSSELL 24/7,"I-70, EXIT 184",Russell,KS,357,3.00733333,3.00733333,38.8874,-98.8514,1278,38.8642,-98.85077,,"RUSSELL 24/7, I-70, EXIT 184, Russell, KS",1,OK,done
52088,CASEYS #4459,"I-64, EXIT 265",Mayfield,KY,490,3.249,3.249,36.7371,-88.6447,1279,36.73663,-88.6674,,"CASEYS #4459, I-64, EXIT 265, Mayfield, KY",1,OK,done
52089,SHELL,US-84 & SR-28,Jonesville,LA,719,3.399,3.399,31.6238,-91.83,1280,31.57439,-91.98034,,"SHELL, US-84 & SR-28, Jonesville, LA",1,OK,done
52090,SHOP A LOTT #10,"I-49, EXIT 138 & SR-6",Natchitoches,LA,766,3.12566666,3.12566666,31.7315,-93.0975,1281,31.78486,-93.08687,,"SHOP A LOTT #10, I-49, EXIT 138 & SR-6, Natchitoches, LA",1,OK,done
52099,BEACON & BRIDGE #7,"I-75, EXIT 126",Mount Morris,MI,342,3.379,3.379,43.1176,-83.6987,1282,43.11517,-83.76328,,"BEACON & BRIDGE #7, I-75, EXIT 126, Mount Morris, MI",1,OK,done
52103,SPRINT MART #27,US-45 & US-72,Corinth,MS,435,3.05566666,3.05566666,34.9474,-88.5143,1283,34.93058,-88.55116,,"SPRINT MART #27, US-45 & US-72, Corinth, MS",1,OK,done
52104,BLUE SKY #734,SR-1,Saltillo,MS,435,3.08233333,3.08233333,34.379,-88.6938,1284,34.37122,-88.69835,,"BLUE SKY #734, SR-1, Saltillo, MS",1,OK,done
52106,FLYING J TRAVEL PLAZA #923 -TOWN PUMP,"I-90, EXIT 455",Billings,MT,780,3.58066666,3.58066666,45.7891,-108.5526,1285,45.81266,-108.41493,,"FLYING J TRAVEL PLAZA #923 -TOWN PUMP, I-90, EXIT 455, Billings, MT",1,OK,done
52107,PILOT #7983,"I-85,  EXIT 71",Salisbury,NC,46,3.499,3.499,35.6658,-80.4905,1286,35.60815,-80.52125,,"PILOT #7983, I-85,  EXIT 71, Salisbury, NC",1,OK,done
52112,SROKAS SERVICE CENTER,SR-149,Fort Ann,NY,12,3.899,3.999,nan,nan,1287,43.41366,-73.4979,,"SROKAS SERVICE CENTER, SR-149, Fort Ann, NY",1,OK,done
52128,Sudden Service #8087,I-40 EXIT 238,Lebanon,TN,460,3.199,3.199,36.204,-86.3481,1288,36.18221,-86.30197,,"Sudden Service #8087, I-40 EXIT 238, Lebanon, TN",1,OK,done
52140,Sinclair,"I-82, EXIT 69",Sunnyside,WA,925,4.599,4.599,46.3157,-120.0058,1289,46.30935,-119.97909,,"Sinclair, I-82, EXIT 69, Sunnyside, WA",1,OK,done
52142,PILOT TRAVEL CENTERS #296,"I-94 & BAKER RD, EXIT 167",Dexter,MI,325,3.5965,3.659,42.3319,-83.8803,1290,42.29605,-83.88012,,"PILOT TRAVEL CENTERS #296, I-94 & BAKER RD, EXIT 167, Dexter, MI",1,OK,done
52143,One9 #319,"I-75, EXIT 328",Dalton,GA,285,3.01566666,3.01566666,34.769,-84.972,1291,34.68503,-85.00109,,"One9 #319, I-75, EXIT 328, Dalton, GA",1,OK,done
52145,Pilot Travel Center #318,"I-465/I-74/US-52/US-40/SR-67, EXIT 4 & SR-37",Indianapolis,IN,375,3.899,3.899,39.7771,-86.1458,1292,39.80057,-86.03376,,"Pilot Travel Center #318, I-465/I-74/US-52/US-40/SR-67, EXIT 4 & SR-37, Indianapolis, IN",1,OK,done
52146,FLYING J TRAVEL PLAZA #758,"I-25, EXIT 185 & SR-258",Casper,WY,790,3.999,3.999,42.842,-106.3208,1293,42.85185,-106.26959,,"FLYING J TRAVEL PLAZA #758, I-25, EXIT 185 & SR-258, Casper, WY",1,OK,done
52149,PILOT TRAVEL CENTERS #321,"I-75/71, EXIT 175 & SR-338",Walton,KY,300,3.08566666,3.08566666,38.8645,-84.6122,1294,38.91905,-84.62527,,"PILOT TRAVEL CENTERS #321, I-75/71, EXIT 175 & SR-338, Walton, KY",1,OK,done
52150,PILOT TRAVEL CENTERS #311,"I-90, EXIT 27 & SR-97",Erie,PA,240,4.21566666,4.21566666,42.1167,-80.0733,1295,42.06886,-80.0397,,"PILOT TRAVEL CENTERS #311, I-90, EXIT 27 & SR-97, Erie, PA",1,OK,done
52152,PILOT TRAVEL CENTERS #308,"I-80 , EXIT 310",Laramie,WY,795,3.609,3.609,41.3099,-105.6085,1296,41.09881,-104.85388,,"PILOT TRAVEL CENTERS #308, I-80 , EXIT 310, Laramie, WY",1,OK,done
52153,PILOT TRAVEL CENTER #1412,"I-94 & RUSSELL RD, EXIT 1",Wadsworth,IL,444,3.789,3.829,42.4448,-87.9202,1297,42.48666,-87.95102,,"PILOT TRAVEL CENTER #1412, I-94 & RUSSELL RD, EXIT 1, Wadsworth, IL",1,OK,done
52155,TA SOUTHINGTON TRAVEL CENTER,"I-84, EXIT 28 & US-65",Milldale,CT,100,5.199,5.199,nan,nan,1298,41.57719,-72.89335,,"TA SOUTHINGTON TRAVEL CENTER, I-84, EXIT 28 & US-65, Milldale, CT",1,OK,done
52163,PILOT TRAVEL CENTER #67,"I-75, EXIT 296",Cartersville,GA,18,3.55733333,3.56566666,34.1644,-84.8009,1299,34.27253,-84.80774,,"PILOT TRAVEL CENTER #67, I-75, EXIT 296, Cartersville, GA",1,OK,done
52212,FLYING J TRAVEL PLAZA #763,"I-80, EXIT 209",Rawlins,WY,795,3.749,3.749,41.7849,-107.2265,1300,41.78926,-107.2335,,"I-80 EXIT 209, Rawlins, WY",4,OK,done
52221,FLYING J TRAVEL PLAZA #726,"I-20, EXIT 472",Dallas,TX,630,3.18233333,3.18233333,32.7935,-96.7667,1301,32.65627,-96.75102,,"FLYING J TRAVEL PLAZA #726, I-20, EXIT 472, Dallas, TX",1,OK,done
52222,FLYING J TRAVEL PLAZA #735,"I-10, EXIT 873 & SR-62",Orange,TX,610,3.309,3.309,30.1226,-93.7607,1302,30.11691,-93.81904,,"FLYING J TRAVEL PLAZA #735, I-10, EXIT 873 & SR-62, Orange, TX",1,OK,done
52230,ONE9 #294,"I-15 & I-84, EXIT 344 SR-39",Ogden,UT,835,3.32566666,3.32566666,41.2279,-111.9682,1303,,,"ERROR: 403 Denied: {""message"":""Missing Authentication Token""}",,99,ERROR,not done
52233,SPEEDWAY #2953,"US-80, EXIT 3",Yuma,AZ,900,3.46566666,3.46566666,32.5995,-114.5491,1304,32.68434,-114.64994,,"SPEEDWAY #2953, US-80, EXIT 3, Yuma, AZ",1,OK,done
52235,PETRO STOPPING CENTER #303,"I-80, EXIT 310",Laramie,WY,795,3.57566666,3.57566666,41.3099,-105.6085,1305,41.32847,-105.61989,,"PETRO STOPPING CENTER #303, I-80, EXIT 310, Laramie, WY",1,OK,done
52236,CHEVRON,US-60,Globe,AZ,930,4.299,4.299,33.387,-110.7513,1306,33.41895,-110.81278,,"CHEVRON, US-60, Globe, AZ",1,OK,done
52239,PILOT TRAVEL CENTER #192,"I-75, EXIT 60",Tifton,GA,10,3.609,3.619,31.4624,-83.5203,1307,31.42854,-83.51632,,"PILOT TRAVEL CENTER #192, I-75, EXIT 60, Tifton, GA",1,OK,done
52241,Rocket,"I-25/US-85/US-87, EXIT 161 & SR-105",Monument,CO,803,3.195,3.195,39.0736,-104.8467,1308,39.09219,-104.86351,,"Rocket, I-25/US-85/US-87, EXIT 161 & SR-105, Monument, CO",1,OK,done
52250,PILOT TRAVEL CENTERS #222,I-84 EXIT 1,Sturbridge,MA,215,4.159,4.159,nan,nan,1309,42.06607,-72.10838,,"PILOT TRAVEL CENTERS #222, I-84 EXIT 1, Sturbridge, MA",1,OK,done
52255,GREATER CHICAGO I 55,"I-55, EXIT 267 & SR-53",Bolingbrook,IL,290,3.464,3.609,41.6901,-88.1021,1310,41.69242,-88.06841,,"GREATER CHICAGO I 55, I-55, EXIT 267 & SR-53, Bolingbrook, IL",1,OK,done
52262,CIRCLE K #2721577,US-84 & SR-21,Monroeville,AL,715,3.434,3.434,31.5162,-87.3279,1311,31.52593,-87.32384,,"CIRCLE K #2721577, US-84 & SR-21, Monroeville, AL",1,OK,done
52278,NEIGHBORS EXPRESS,US-25/SR-121/SR-23/SR-67,Millen,GA,135,3.38233333,3.38233333,32.8071,-81.9423,1312,32.80378,-81.94915,,"NEIGHBORS EXPRESS, US-25/SR-121/SR-23/SR-67, Millen, GA",1,OK,done
52297,IGA EXPRESS SHELL #874,"I-65, EXIT 20",Bowling Green,KY,460,2.999,2.999,36.9716,-86.4378,1313,36.94866,-86.42798,,"IGA EXPRESS SHELL #874, I-65, EXIT 20, Bowling Green, KY",1,OK,done
52299,415 TRUCK STOP,"I-10, EXIT 151 & SR-415",Port Allen,LA,600,3.089,3.089,30.4456,-91.2098,1314,30.45172,-91.246,,"415 TRUCK STOP, I-10, EXIT 151 & SR-415, Port Allen, LA",1,OK,done
52302,LONGHORN TRUCK AND CAR PLAZA,"I-10, EXIT 4",Vinton,LA,690,3.274,3.274,30.1957,-93.5818,1315,,,"ERROR: 403 Denied: {""message"":""Missing Authentication Token""}",,99,ERROR,not done
52304,Fast Stop,"I-10, EXIT 182 & SR-22",Sorrento,LA,600,3.699,3.699,30.1828,-90.8674,1316,30.16998,-90.87889,,"Fast Stop, I-10, EXIT 182 & SR-22, Sorrento, LA",1,OK,done
52307,CASEYS #3002,SR-60 & SR-30/SR-4,Saint James,MN,425,3.219,3.219,nan,nan,1317,43.98255,-94.62847,,"CASEYS #3002, SR-60 & SR-30/SR-4, Saint James, MN",1,OK,done
52313,CIRCLE K #2723445,"I-20, EXIT 5A & US-61/SR-27",Vicksburg,MS,760,2.959,2.959,32.3173,-90.8868,1318,32.34372,-90.82869,,"CIRCLE K #2723445, I-20, EXIT 5A & US-61/SR-27, Vicksburg, MS",1,OK,done
52322,BOLLA MARKET,"I-95, EXIT 13",Elizabeth,NJ,115,3.099,3.099,40.6658,-74.1913,1319,40.65123,-74.21837,,"BOLLA MARKET, I-95, EXIT 13, Elizabeth, NJ",1,OK,done
52323,POWER,"I-78, EXIT 58 & SR-9/SR-1",Newark,NJ,115,4.299,4.299,40.7245,-74.1725,1320,40.71118,-74.17633,,"POWER, I-78 EXIT 58, Newark, NJ",2,OK,done
52325,MIRABITO #69,"I-88, EXIT 15 & SR-23",Oneonta,NY,12,3.999,3.999,42.4551,-75.0666,1321,42.44767,-75.03026,,"MIRABITO #69, I-88, EXIT 15 & SR-23, Oneonta, NY",1,OK,done
52326,MR FUEL #715,"I-70, EXIT 203",Foristell,MO,540,2.92566666,2.92566666,38.8156,-90.9627,1322,38.81723,-90.95776,,"MR FUEL #715, I-70, EXIT 203, Foristell, MO",1,OK,done
52334,KWIK TRIP #775,"I-90, EXIT 69 & SR-82",Mauston,WI,420,3.28733333,3.28733333,43.7995,-90.0775,1323,43.79688,-90.07161,,"KWIK TRIP #775, I-90, EXIT 69 & SR-82, Mauston, WI",1,OK,done
52335,SHELL,"I-295, EXIT 3",Disputanta,VA,180,3.029,3.029,37.1236,-77.2249,1324,37.18308,-77.31803,,"SHELL, I-295, EXIT 3, Disputanta, VA",1,OK,done
52340,KWIK FILL #249,US-22,Duncansville,PA,14,4.07233333,4.07233333,40.4263,-78.4303,1325,40.42015,-78.45033,,"KWIK FILL #249, US-22, Duncansville, PA",1,OK,done
52344,STAMART 1224,"I-94, EXIT 166",Bismarck,ND,273,3.61566666,3.61566666,46.8143,-100.7694,1326,46.82943,-100.72934,,"STAMART 1224, I-94, EXIT 166, Bismarck, ND",1,OK,done
52346,QUARLES #4436,"I-695, EXIT 41 & SR-151",Dundalk,MD,22,3.699,3.699,39.2704,-76.4942,1327,39.27999,-76.47756,,"QUARLES #4436, I-695, EXIT 41 & SR-151, Dundalk, MD",1,OK,done
52348,SHELL,"I-75, EXIT47 & SR-85",Detroit,MI,325,3.699,3.699,42.3834,-83.1024,1328,42.32996,-83.08651,,"SHELL, I-75, EXIT47 & SR-85, Detroit, MI",1,OK,done
52361,PAYLESS FUEL TRAVEL CENTER,"I-20, EXIT 470",Dallas,TX,630,2.98566666,2.98566666,32.7935,-96.7667,1329,32.64844,-96.78197,,"PAYLESS FUEL TRAVEL CENTER, I-20, EXIT 470, Dallas, TX",1,OK,done
52363,SPEEDWAY #2376,US-131 & SR-46,Cedar Springs,MI,456,3.899,3.899,43.2201,-85.5535,1330,43.21953,-85.56915,,"SPEEDWAY #2376, US-131 & SR-46, Cedar Springs, MI",1,OK,done
52364,PILOT TRAVEL CENTERS #335,"I-20 & SR-137, EXIT 138",Rayville,LA,760,3.21233333,3.21233333,32.4707,-91.7576,1331,32.4595,-91.75938,,"PILOT TRAVEL CENTERS #335, I-20, Rayville, LA",2,OK,done
52365,MOORES SUPER STORE,US-43/US-278/SR-171,Hamilton,AL,615,3.799,3.799,34.1346,-87.9755,1332,34.14144,-87.98867,,"MOORES SUPER STORE, US-43/US-278/SR-171, Hamilton, AL",1,OK,done
52366,ALMA TRAVEL MART,"I-40, EXIT 13 & US-71",Alma,AR,645,3.33233333,3.33233333,35.4919,-94.2165,1333,35.48438,-94.22731,,"ALMA TRAVEL MART, I-40, EXIT 13 & US-71, Alma, AR",1,OK,done
52367,DOSWELL TRUCK STOP,"I-95, EXIT 98 & SR-30",Doswell,VA,180,2.899,2.899,nan,nan,1334,37.84533,-77.45238,,"DOSWELL TRUCK STOP, I-95, EXIT 98 & SR-30, Doswell, VA",1,OK,done
52383,FLYING J TRAVEL PLAZA #601,"I-20/I-59, EXIT 104",Mc Calla,AL,615,3.17066666,3.17066666,nan,nan,1335,33.23054,-87.16811,,"FLYING J TRAVEL PLAZA #601, I-20/I-59, EXIT 104, Mc Calla, AL",1,OK,done
52384,PILOT TRAVEL CENTERS #337,"I-95, EXIT 164 & US-52",Florence,SC,46,3.349,3.349,34.178,-79.7898,1336,34.23281,-79.80222,,"PILOT TRAVEL CENTERS #337, I-95, EXIT 164 & US-52, Florence, SC",1,OK,done
52385,Flying J Travel Plaza #696,"I-71, EXIT 131",Sunbury,OH,315,3.719,3.719,40.2485,-82.8806,1337,40.2677,-82.92491,,"Flying J Travel Plaza #696, I-71, EXIT 131, Sunbury, OH",1,OK,done
52387,MARATHON,"I-55, EXIT 265 & SR-4",Senatobia,MS,435,3.199,3.199,34.6081,-89.9762,1338,34.62809,-89.97565,,"MARATHON, I-55, EXIT 265 & SR-4, Senatobia, MS",1,OK,done
52388,FLYING J TRAVEL PLAZA #711,"I-85, EXIT 102",Blacksburg,SC,46,3.429,3.429,35.122,-81.5182,1339,35.14208,-81.50908,,"FLYING J TRAVEL PLAZA #711, I-85, EXIT 102, Blacksburg, SC",1,OK,done
52393,CASEYS #3004,SR-15 & CR-52,Truman,MN,425,3.299,3.299,43.8279,-94.4366,1340,43.83271,-94.42793,,"CASEYS #3004, SR-15 & CR-52, Truman, MN",1,OK,done
52400,PILOT TRAVEL CENTERS #324,"I-94/US-41, EXIT 329",Franksville,WI,444,3.889,3.889,nan,nan,1341,42.77907,-87.95156,,"PILOT TRAVEL CENTERS #324, I-94/US-41, EXIT 329, Franksville, WI",1,OK,done
52401,LOVES TRAVEL STOP #267,"I-40, EXIT 107 & SR-95",Morrilton,AR,695,3.36066666,3.36066666,35.1558,-92.7387,1342,35.15333,-92.74515,,"LOVES TRAVEL STOP #267, I-40, EXIT 107 & SR-95, Morrilton, AR",1,OK,done
52402,FLYING J TRAVEL PLAZA #665,"I-20, EXIT 3 & SR-79",Greenwood,LA,745,3.14566666,3.14566666,32.4359,-93.9643,1343,32.44418,-93.97969,,"FLYING J TRAVEL PLAZA #665, I-20, EXIT 3 & SR-79, Greenwood, LA",1,OK,done
52403,FLYING J TRAVEL PLAZA #676,"I-10, EXIT 31",Gulfport,MS,733,3.14566666,3.14566666,30.4274,-89.0704,1344,30.42148,-89.13746,,"FLYING J TRAVEL PLAZA #676, I-10, EXIT 31, Gulfport, MS",1,OK,done
52404,PETRO WELLS,"I-80, EXIT 352",Wells,NV,835,3.73233333,3.73233333,41.1132,-114.9535,1345,41.10319,-114.96863,,"PETRO WELLS, I-80, EXIT 352, Wells, NV",1,OK,done
52405,FLYING J TRAVEL PLAZA #636,"I-80, EXIT 292",Davenport,IA,270,3.87233333,3.87233333,41.5565,-90.6053,1346,41.60289,-90.62488,,"FLYING J TRAVEL PLAZA #636, I-80, EXIT 292, Davenport, IA",1,OK,done
52411,SAPP BROS TRAVEL CENTER,"I-215, EXIT 21",Salt Lake City,UT,835,3.399,3.399,40.7776,-111.9311,1347,40.77425,-111.87177,,"SAPP BROS TRAVEL CENTER, I-215, EXIT 21, Salt Lake City, UT",1,OK,done
52413,PILOT TRAVEL CENTERS #360,"I-75 & SR-613, EXIT 164",Findlay,OH,411,3.31566666,3.31566666,41.0469,-83.6379,1348,41.13597,-83.66076,,"PILOT TRAVEL CENTERS #360, I-75 & SR-613, EXIT 164, Findlay, OH",1,OK,done
52414,Mobil dba ONE9 #1341,"I-5, EXIT 208",Arlington,WA,977,3.799,3.799,48.1701,-122.1442,1349,48.19716,-122.12543,,"Mobil dba ONE9 #1341, I-5, EXIT 208, Arlington, WA",1,OK,done
52421,SHEETZ #194,"I-80, EXIT 97",Falls Creek,PA,14,3.30733333,3.30733333,41.1421,-78.8067,1350,41.15776,-78.82039,,"SHEETZ #194, I-80, EXIT 97, Falls Creek, PA",1,OK,done
52422,KWIK TRIP #674,"I-94, EXIT 45 & US-12/SR-29",Menomonie,WI,295,3.499,3.499,44.8893,-91.9084,1351,44.87678,-91.92951,,"KWIK TRIP #674, I-94, EXIT 45 & US-12/SR-29, Menomonie, WI",1,OK,done
