OPIS Truckstop ID,Truckstop_Name,Address,City,State,Rack_ID,Average_Retail_Price,Highest_Price,city_lat,city_lon,row_index,Geocoded_Lat,Geocoded_Lon,Matched_Address,Query_Used,Attempt,Geocode_Status,Done
7,WOODSHED OF BIG CABIN,"I-44, EXIT 283 & US-69",Big Cabin,OK,307,3.00733333,3.00733333,36.5423,-95.222,0,36.56599,-95.22145,,"WOODSHED OF BIG CABIN, I-44, EXIT 283 & US-69, Big Cabin, OK",1,OK,done
9,KWIK TRIP #796,"I-94, EXIT 143 & US-12 & SR-21",Tomah,WI,420,3.28733333,3.28733333,43.9879,-90.4999,1,44.01988,-90.49484,,"KWIK TRIP #796, I-94, EXIT 143 & US-12 & SR-21, Tomah, WI",1,OK,done
20,PILOT TRAVEL CENTER #1243,"I-8, EXIT 119 & SR-85",Gila Bend,AZ,930,3.899,3.899,32.9662,-112.7154,2,32.92976,-112.67314,,"PILOT TRAVEL CENTER #1243, I-8, EXIT 119 & SR-85, Gila Bend, AZ",1,OK,done
28,LITTLEFIELD EXPRESS #2,"I-540, EXIT 12 & US-71",Fort Smith,AR,645,3.399,3.399,35.3495,-94.3695,3,35.31391,-94.40084,,"LITTLEFIELD EXPRESS #2, I-540, EXIT 12 & US-71, Fort Smith, AR",1,OK,done
35,ACI TRUCK STOP,US-46,Columbia,NJ,90,3.079,3.079,40.926,-75.0945,4,40.89747,-75.07053,,"ACI TRUCK STOP, US-46, Columbia, NJ",1,OK,done
36,SHENANDOAH TRUCK CENTER,"I-81, EXIT 273 & SR-703/SR-292",Mount Jackson,VA,60,2.899,2.899,38.739,-78.651,5,38.76086,-78.6314,,"SHENANDOAH TRUCK CENTER, I-81, EXIT 273 & SR-703/SR-292, Mount Jackson, VA",1,OK,done
44,CIRCLE K #2612042,"I-35,  EXIT 271",Jarrell,TX,595,2.919,2.919,30.8103,-97.6144,6,30.80534,-97.5885,,"CIRCLE K #2612042, I-35,  EXIT 271, Jarrell, TX",1,OK,done
46,PETRO STOPPING CENTER #348,"I-85,  EXIT 22 & CR-138",Shorter,AL,720,3.154,3.154,32.4077,-85.9413,7,32.40555,-85.95587,,"PETRO STOPPING CENTER #348, I-85,  EXIT 22 & CR-138, Shorter, AL",1,OK,done
49,TA SEYMOUR TRAVEL CENTER,"I-65, EXIT 50 & US-50 & US-31",Seymour,IN,415,3.959,3.959,38.9476,-85.8911,8,38.88271,-85.81888,,"TA SEYMOUR TRAVEL CENTER, I-65, EXIT 50 & US-50 & US-31, Seymour, IN",1,OK,done
50,TA COUNCIL BLUFFS TRAVEL CENTER,"I-29 & I-80, EXIT 3",Council Bluffs,IA,319,3.72566666,3.72566666,41.2369,-95.8516,9,41.18957,-95.8237,,"TA COUNCIL BLUFFS TRAVEL CENTER, I-29 & I-80, EXIT 3, Council Bluffs, IA",1,OK,done
56,TOPS TRUCK STOP,"I-94, EXIT 182 & US-83",Sterling,ND,390,3.51566666,3.51566666,nan,nan,10,46.80447,-100.28945,,"TOPS TRUCK STOP, I-94, EXIT 182 & US-83, Sterling, ND",1,OK,done
75,Good 2 Go #709,US-50,Montrose,CO,810,3.424,3.424,38.4689,-107.859,11,38.4861,-107.86732,,"Good 2 Go #709, US-50, Montrose, CO",1,OK,done
77,OASIS TRAVEL PLAZA,US-13,Laurel,DE,243,3.229,3.229,38.5691,-75.5689,12,38.56084,-75.55627,,"OASIS TRAVEL PLAZA, US-13, Laurel, DE",1,OK,done
79,DELAWARE TRUCK PLAZA,US-13 & US-40,New Castle,DE,243,3.249,3.249,39.6681,-75.5697,13,39.68437,-75.5873,,"DELAWARE TRUCK PLAZA, US-13 & US-40, New Castle, DE",1,OK,done
81,One9 #89,"I-75, EXIT 224",Ellenton,FL,225,3.439,3.439,27.5269,-82.5258,14,27.53631,-82.51074,,"One9 #89, I-75, EXIT 224, Ellenton, FL",1,OK,done
85,DOWNIEVILLE FUEL STOP,"I-70, EXIT 234",Dumont,CO,800,3.459,3.459,nan,nan,15,39.76609,-105.61409,,"DOWNIEVILLE FUEL STOP, I-70, EXIT 234, Dumont, CO",1,OK,done
91,MOLLYS FOOD & FUEL,"I-20 & ST 22, EXIT 55",Crawfordville,GA,135,3.499,3.499,33.5545,-82.8966,16,33.5296,-82.90855,,"MOLLYS FOOD & FUEL, I-20 & ST 22, EXIT 55, Crawfordville, GA",1,OK,done
105,TA SAGINAW I 75 TRAVEL CENTER,"I-75, EXIT 144-B",Bridgeport,MI,260,3.337333333333333,3.429,43.3706,-83.8827,17,43.35074,-83.86439,,"TA SAGINAW I 75 TRAVEL CENTER, I-75, EXIT 144-B, Bridgeport, MI",1,OK,done
118,Lupton Truck Stop #567,"I-40, EXIT 359",Lupton,AZ,580,3.299,3.299,35.3547,-109.0527,18,,,"ERROR: 403 Denied: {""message"":""Missing Authentication Token""}",,99,ERROR,not done
121,PETRO STOPPING CENTER #306,"I-10, EXIT 200",Eloy,AZ,930,3.474,3.474,32.747,-111.5992,19,32.8072,-111.67094,,"PETRO STOPPING CENTER #306, I-10, EXIT 200, Eloy, AZ",1,OK,done
127,CIRCLE K #4700095,US-41,Henderson,KY,340,3.609,3.609,37.8397,-87.5798,20,37.05275,-88.71155,,"CIRCLE K #4700095, US-41, Henderson, KY",1,OK,done
128,THE EFFINGHAM CHROME SHOP,"I-57 & I-70, EXIT 159",Effingham,IL,510,3.4323333333333337,3.549,39.1205,-88.5509,21,39.12147,-88.57296,,"THE EFFINGHAM CHROME SHOP, I-57 & I-70, EXIT 159, Effingham, IL",1,OK,done
135,LOVES TRAVEL STOP #766,"I-80, EXIT 27",Atkinson,IL,290,3.4756666666666667,3.589,41.4168,-90.0087,22,41.41072,-90.01805,,"LOVES TRAVEL STOP #766, I-80, EXIT 27, Atkinson, IL",1,OK,done
147,SPEEDWAY #8039,"I-69, EXIT 234 & SR-67",Daleville,IN,375,3.624,3.624,40.1187,-85.5567,23,40.10836,-85.56871,,"SPEEDWAY #8039, I-69, EXIT 234 & SR-67, Daleville, IN",1,OK,done
149,RAYS TRUCK WASH,"I-69, EXIT 309 & US-30",Fort Wayne,IN,370,3.59233333,3.59233333,41.0888,-85.1436,24,41.0764,-85.14247,,"RAYS TRUCK WASH, I-69, EXIT 309 & US-30, Fort Wayne, IN",1,OK,done
151,CUBBYS #2101,"I-80, EXIT 211 & SR-47",Gothenburg,NE,475,3.13233333,3.13233333,40.9242,-100.154,25,40.92135,-100.16644,,"CUBBYS #2101, I-80, EXIT 211 & SR-47, Gothenburg, NE",1,OK,done
159,PILOT TRAVEL CENTER #87,"I-10, EXIT 343",Jacksonville,FL,75,3.859,3.859,30.3322,-81.6749,26,30.28398,-81.98386,,"PILOT TRAVEL CENTER #87, I-10, EXIT 343, Jacksonville, FL",1,OK,done
160,PILOT TRAVEL CENTERS #79,"I-12, EXIT 10 AT MILE 10",Denham Springs,LA,600,3.23233333,3.23233333,30.4743,-90.9593,27,30.45181,-90.95816,,"PILOT TRAVEL CENTERS #79, I-12, EXIT 10 AT MILE 10, Denham Springs, LA",1,OK,done
164,FLYING J TRAVEL PLAZA #650,"I-94, EXIT 15 B",Lake Station,IN,365,3.809,3.809,41.5729,-87.2599,28,41.58647,-87.23954,,"FLYING J TRAVEL PLAZA #650, I-94, EXIT 15 B, Lake Station, IN",1,OK,done
167,FLYING J TRAVEL PLAZA #653,RT 2 & I-65 EXIT 240,Hebron,IN,365,3.43566666,3.43566666,41.3247,-87.2018,29,,,"ERROR: 403 Denied: {""message"":""Missing Authentication Token""}",,99,ERROR,not done
174,Hop-In Food Stores,US-59 & SR-224,Nacogdoches,TX,618,2.859,2.859,31.6134,-94.6528,30,31.56242,-94.68022,,"Hop-In Food Stores, US-59 & SR-224, Nacogdoches, TX",1,OK,done
184,SAPP BROS TRAVEL CENTER,"I-29 & I-80, EXIT 1B",Council Bluffs,IA,486,3.719,3.719,41.2369,-95.8516,31,41.18957,-95.8237,,"SAPP BROS TRAVEL CENTER, I-29 & I-80, EXIT 1B, Council Bluffs, IA",1,OK,done
186,COFFEE CUP FUEL STOP #5,"I-90, EXIT 154 & US-16",Moorcroft,WY,822,3.239,3.239,44.2645,-104.9476,32,44.26366,-104.95282,,"COFFEE CUP FUEL STOP #5, I-90, EXIT 154 & US-16, Moorcroft, WY",1,OK,done
187,DUDLEYS CORNER,"I-35, EXIT 165 & SR-3",Latimer,IA,433,3.23233333,3.23233333,42.763,-93.3658,33,42.78617,-93.37244,,"DUDLEYS CORNER, I-35, EXIT 165 & SR-3, Latimer, IA",1,OK,done
191,KUM & GO #0302,"I-35, EXIT 193 & SR 106",Clear Lake,IA,433,3.18566666,3.18566666,43.1347,-93.374,34,43.13373,-93.3573,,"KUM & GO #0302, I-35, EXIT 193 & SR 106, Clear Lake, IA",1,OK,done
192,Brew Stuart Truckstop,"I-80, EXIT 93",Stuart,IA,320,3.099,3.099,41.5004,-94.3182,35,41.49291,-94.33773,,"Brew Stuart Truckstop, I-80, EXIT 93, Stuart, IA",1,OK,done
195,PETRO STOPPING CENTER #311,"I-40 & I-55, EXIT 280",West Memphis,AR,435,3.36733333,3.36733333,35.153,-90.1996,36,35.15442,-90.13589,,"PETRO STOPPING CENTER #311, I-40 & I-55, EXIT 280, West Memphis, AR",1,OK,done
198,SINCLAIR,"I-76, EXIT 115",Atwood,CO,800,3.299,3.299,40.5505,-103.2746,37,40.50172,-103.26234,,"SINCLAIR, I-76, EXIT 115, Atwood, CO",1,OK,done
199,PETRO STOPPING CENTER #366,"I-70, EXIT 252",Salina,KS,523,3.80566666,3.80566666,38.8136,-97.6143,38,38.87925,-97.61284,,"PETRO STOPPING CENTER #366, I-70, EXIT 252, Salina, KS",1,OK,done
203,PILOT TRAVEL CENTER #31,"I-80/94, EXIT 2",Highland,IN,365,3.814,3.829,41.5483,-87.4588,39,41.56732,-87.47301,,"PILOT TRAVEL CENTER #31, I-80/94, EXIT 2, Highland, IN",1,OK,done
207,MARATHON,SR-32,Sardinia,OH,300,3.56566666,3.56566666,39.0071,-83.802,40,39.01416,-83.80961,,"MARATHON, SR-32, Sardinia, OH",1,OK,done
216,CIRCLE K #2721593,"I-10, EXIT 50",Ocean Springs,MS,715,3.41566666,3.41566666,30.4082,-88.7861,41,30.40818,-88.75812,,"CIRCLE K #2721593, I-10, EXIT 50, Ocean Springs, MS",1,OK,done
217,NORTH 9TH 24/7,"I-70, EXIT 252",Salina,KS,523,3.02566666,3.02566666,38.8136,-97.6143,42,38.87774,-97.61203,,"NORTH 9TH 24/7, I-70, EXIT 252, Salina, KS",1,OK,done
231,DERBY CITYS TRUCK PLAZA,"I-75, EXIT 62 & US-25",Mount Vernon,KY,410,2.999,2.999,37.3654,-84.3401,43,37.3295,-84.37136,,"DERBY CITYS TRUCK PLAZA, I-75, EXIT 62 & US-25, Mount Vernon, KY",1,OK,done
235,PILOT TRAVEL CENTERS #92,"I-75, EXIT 358",Ocala,FL,225,3.385666665,3.41233333,29.178,-82.1511,44,29.02473,-82.15914,,"PILOT TRAVEL CENTERS #92, I-75, EXIT 358, Ocala, FL",1,OK,done
240,LA 1 SOUTH TRUCKSTOP,"I-10, EXIT 153 & SR-1",Port Allen,LA,600,3.039,3.039,30.4456,-91.2098,45,30.45176,-91.21056,,"LA 1 SOUTH TRUCKSTOP, I-10, EXIT 153 & SR-1, Port Allen, LA",1,OK,done
243,SAVE,US-41 & SR-10,Lake Village,IN,399,3.179,3.179,41.1308,-87.439,46,41.14426,-87.38996,,"SAVE, US-41 & SR-10, Lake Village, IN",1,OK,done
244,BIG D TRUCK TRAVEL PLAZA,"I-10, EXIT 92 & SR-95",Duson,LA,725,2.98233333,2.98233333,30.2365,-92.193,47,,,"ERROR: 403 Denied: {""message"":""Missing Authentication Token""}",,99,ERROR,not done
248,Mardi Gras Truck Stop,"I-10, EXIT 236",New Orleans,LA,725,3.729,3.729,30.0687,-89.9288,48,29.98265,-90.05749,,"Mardi Gras Truck Stop, I-10, EXIT 236, New Orleans, LA",1,OK,done
250,GOLDEN OX TRUCK STOP,"I-70/US-40, EXIT 159 & US-183",Hays,KS,523,3.499,3.499,38.8821,-99.3221,49,38.89975,-99.31729,,"GOLDEN OX TRUCK STOP, I-70/US-40, EXIT 159 & US-183, Hays, KS",1,OK,done
253,LOVES TRAVEL STOP #450,"I-40, EXIT 280 & I-55, EXIT 4",West Memphis,AR,435,3.32566666,3.32566666,35.153,-90.1996,50,35.15419,-90.13809,,"LOVES TRAVEL STOP #450, I-40, EXIT 280 & I-55, EXIT 4, West Memphis, AR",1,OK,done
256,BFS FOODS #66,"I-68/US-40, EXIT 22 & US-219",Grantsville,MD,165,3.899,3.899,39.6969,-79.1528,51,39.68694,-79.09414,,"BFS FOODS #66, I-68/US-40, EXIT 22 & US-219, Grantsville, MD",1,OK,done
257,PILOT TRAVEL CENTER #917- TOWN PUMP,I-15 & 31ST STREET EXIT 277,Great Falls,MT,815,3.63566666,3.63566666,47.5022,-111.2996,52,47.47018,-111.35982,,"PILOT TRAVEL CENTER #917- TOWN PUMP, I-15 & 31ST STREET EXIT 277, Great Falls, MT",1,OK,done
263,CASEYS #3956,I-94 EXIT 16,Bridgman,MI,465,3.559,3.559,41.9396,-86.5652,53,41.92639,-86.5702,,"CASEYS #3956, I-94 EXIT 16, Bridgman, MI",1,OK,done
267,CORNER MARKET #117,SR-154 & SR-129,Dodge City,KS,357,3.399,3.399,37.7611,-100.0182,54,37.73953,-100.01852,,"CORNER MARKET #117, SR-154 & SR-129, Dodge City, KS",1,OK,done
269,PILOT TRAVEL CENTERS #24,"I-75, EXIT 15",Monroe,MI,325,3.379,3.559,41.9155,-83.3849,55,41.9246,-83.3661,,"PILOT TRAVEL CENTERS #24, I-75, EXIT 15, Monroe, MI",1,OK,done
278,CARLISLE PLAZA,US-41,Carlisle,IN,510,3.499,3.499,38.9608,-87.4014,56,38.95533,-87.40702,,"CARLISLE PLAZA, US-41, Carlisle, IN",1,OK,done
281,CIRCLE K #4700065,"I-65, EXIT 76 & US-31",Taylorsville,IN,375,3.399,3.399,39.2964,-85.9502,57,39.2961,-85.9577,,"CIRCLE K #4700065, I-65, EXIT 76 & US-31, Taylorsville, IN",1,OK,done
289,LOVES TRAVEL STOP #173,"I-70, MM 209",Lawrence,KS,553,3.229,3.229,38.9597,-95.2642,58,39.02001,-95.13516,,"LOVES TRAVEL STOP #173, I-70, MM 209, Lawrence, KS",1,OK,done
292,PETES #56,US-169 & CR-5000,Cherryvale,KS,307,3.23233333,3.23233333,37.269,-95.5536,59,37.24143,-95.57592,,"PETES #56, US-169 & CR-5000, Cherryvale, KS",1,OK,done
293,LOVES TRAVEL STOP #176,"I-35, MILE MARKER 97",Matfield Green,KS,336,3.25566666,3.25566666,38.1596,-96.5623,60,38.09553,-96.57944,,"LOVES TRAVEL STOP #176, I-35, MILE MARKER 97, Matfield Green, KS",1,OK,done
304,FL Roberts,"I-91, EXIT 4",Springfield,MA,100,3.599,3.599,42.1155,-72.5395,61,42.08817,-72.58094,,"FL Roberts, I-91, EXIT 4, Springfield, MA",1,OK,done
309,QUIKTRIP #231,"I-635, EXIT 3",Kansas City,KS,400,3.199,3.199,39.1235,-94.7443,62,39.08995,-94.67811,,"QUIKTRIP #231, I-635, EXIT 3, Kansas City, KS",1,OK,done
323,SAPP BROS TRAVEL CENTER,"I-80, EXIT 126",Ogallala,NE,475,3.46566666,3.46566666,41.1292,-101.7211,63,,,"ERROR: 403 Denied: {""message"":""Missing Authentication Token""}",,99,ERROR,not done
326,FLYING J TRAVEL PLAZA #748,"I-15, EXIT 357",Willard,UT,835,3.749,3.749,41.4148,-112.0448,64,41.42351,-112.05211,,"FLYING J TRAVEL PLAZA #748, I-15, EXIT 357, Willard, UT",1,OK,done
341,TA JACKSONVILLE SOUTH TRAVEL CENTER,"I-95, EXIT 329",Saint Johns,FL,75,3.469,3.469,nan,nan,65,30.11573,-81.59003,,"TA JACKSONVILLE SOUTH TRAVEL CENTER, I-95, EXIT 329, Saint Johns, FL",1,OK,done
347,7-ELEVEN #40514,I-90/80-IN TOLL RD MM 22E,Portage,IN,365,3.99066666,3.99066666,41.5856,-87.1797,66,41.58895,-87.21661,,"7-ELEVEN #40514, I-90/80-IN TOLL RD MM 22E, Portage, IN",1,OK,done
358,TA BINGHAMTON TRAVELCENTER,"I-81N, EXIT 2W & I-81S, EXIT 3",Binghamton,NY,32,3.724,3.769,42.1014,-75.9093,67,42.10137,-75.84139,,"TA BINGHAMTON TRAVELCENTER, I-81N, EXIT 2W & I-81S, EXIT 3, Binghamton, NY",1,OK,done
361,CIRCLE K #2726293,"I-295, EXIT 25",Jacksonville,FL,75,3.31566666,3.31566666,30.3322,-81.6749,68,30.25865,-81.51799,,"CIRCLE K #2726293, I-295, EXIT 25, Jacksonville, FL",1,OK,done
368,WILTON TRAVEL PLAZA,"I-87, EXIT 16",Gansevoort,NY,12,3.774,3.799,nan,nan,69,43.19867,-73.64901,,"WILTON TRAVEL PLAZA, I-87, EXIT 16, Gansevoort, NY",1,OK,done
372,GAS DEPOT,"I-94, EXIT 5",Hammond,IN,365,3.999,3.999,41.6168,-87.4909,70,41.58834,-87.43944,,"GAS DEPOT, I-94, EXIT 5, Hammond, IN",1,OK,done
381,7-Eleven #41830,US-69 & US-135,Jacksonville,TX,630,2.91566666,2.91566666,31.9642,-95.2617,71,31.96604,-95.27204,,"7-Eleven #41830, US-69 & US-135, Jacksonville, TX",1,OK,done
387,Circle K #2709664,"I-8, EXIT 12",Yuma,AZ,930,3.489,3.489,32.5995,-114.5491,72,32.70621,-114.6103,,"Circle K #2709664, I-8, EXIT 12, Yuma, AZ",1,OK,done
388,Pilot Travel Centers #14,"I-71, EXIT 131",Sunbury,OH,315,3.719,3.719,40.2485,-82.8806,73,40.2677,-82.92491,,"Pilot Travel Centers #14, I-71, EXIT 131, Sunbury, OH",1,OK,done
391,PILOT TRAVEL CENTERS #13,"I-71, EXIT 209",Seville,OH,305,3.699,3.699,41.0207,-81.8671,74,41.02952,-81.90829,,"PILOT TRAVEL CENTERS #13, I-71, EXIT 209, Seville, OH",1,OK,done
403,TRUCKOMAT OF HEBRON,"I-70, EXIT 126 & SR-37",Hebron,OH,315,3.429,3.429,39.9644,-82.4898,75,39.93767,-82.53519,,"TRUCKOMAT OF HEBRON, I-70, EXIT 126 & SR-37, Hebron, OH",1,OK,done
407,FUEL MART #641,"I-80 & I-280, EXIT 71",Perrysburg,OH,550,3.499,3.499,41.5377,-83.6413,76,41.54078,-83.6273,,"FUEL MART #641, I-80 & I-280, EXIT 71, Perrysburg, OH",1,OK,done
421,PETRO STOPPING CENTER #316,"I-40 & I-35, EXIT 127",Oklahoma City,OK,483,3.30233333,3.30233333,35.4676,-97.5136,77,35.33812,-97.49089,,"PETRO STOPPING CENTER #316, I-40 & I-35, EXIT 127, Oklahoma City, OK",1,OK,done
424,E EXPRESS,"I-40, EXIT 166",Choctaw,OK,483,2.899,2.899,35.4802,-97.2666,78,35.39044,-97.25928,,"E EXPRESS, I-40, EXIT 166, Choctaw, OK",1,OK,done
425,Neighbors Express,"I-16, EXIT 51",Dublin,GA,85,3.299,3.299,32.536,-82.928,79,33.75286,-84.4512,,"Neighbors Express, I-16, EXIT 51, Dublin, GA",1,OK,done
442,WESTERN COOP,US-385 & SR-2,Alliance,NE,795,3.324,3.324,42.1025,-102.8766,80,42.09588,-102.87458,,"WESTERN COOP, US-385 & SR-2, Alliance, NE",1,OK,done
455,MR FUEL #753,"I-95, EXIT 104 & SR-207",Ruther Glen,VA,180,3.26566666,3.26566666,nan,nan,81,37.93837,-77.4727,,"MR FUEL #753, I-95, EXIT 104 & SR-207, Ruther Glen, VA",1,OK,done
456,THE COUNTRY OASIS,US-24,Woodburn,IN,370,3.399,3.399,41.1287,-84.8503,82,41.13814,-84.86702,,"US-24, Woodburn, IN",4,OK,done
458,HAPPY HILLS GAS & COFFEE,I-29 EXIT 110,Rock Port,MO,400,3.399,3.399,40.4109,-95.5332,83,40.4586,-95.58518,,"HAPPY HILLS GAS & COFFEE, I-29 EXIT 110, Rock Port, MO",1,OK,done
460,TRUCK STOP 44,I-20 EXIT 44,Gilbert,SC,135,3.079,3.079,33.9245,-81.3928,84,33.86833,-81.38697,,"TRUCK STOP 44, I-20 EXIT 44, Gilbert, SC",1,OK,done
461,SPINX #271,"I-26, EXIT 145 & US-601",Orangeburg,SC,42,3.26233333,3.26233333,33.4928,-80.8671,85,33.48593,-80.86364,,"SPINX #271, I-26, EXIT 145 & US-601, Orangeburg, SC",1,OK,done
469,LOAF N JUG #750010,US-160 & SR-17,Alamosa,CO,803,3.259,3.259,37.4752,-105.877,86,37.53637,-106.03855,,"LOAF N JUG #750010, US-160 & SR-17, Alamosa, CO",1,OK,done
474,KEWANEE 1 STOP,"I-20, EXIT 169 & US-80",Toomsuba,MS,705,3.299,3.299,32.4267,-88.51,87,32.42549,-88.44789,,"KEWANEE 1 STOP, I-20, EXIT 169 & US-80, Toomsuba, MS",1,OK,done
478,GASTRAK OF PEMBINA,"I-29, EXIT 215",Pembina,ND,355,3.299,3.299,48.9669,-97.2475,88,48.9674,-97.25833,,"GASTRAK OF PEMBINA, I-29, EXIT 215, Pembina, ND",1,OK,done
483,ALLSUPS #2387,US-54/SR-136/SR-3 & US-64,Guymon,OK,585,2.97566666,2.97566666,36.6903,-101.4774,89,36.70322,-101.48456,,"ALLSUPS #2387, US-54/SR-136/SR-3 & US-64, Guymon, OK",1,OK,done
486,LA NORIA CONV STORES,"I-35 N, EXIT 4",Laredo,TX,693,3.299,3.299,27.5625,-99.4874,90,27.56663,-99.50437,,"LA NORIA CONV STORES, I-35 N, EXIT 4, Laredo, TX",1,OK,done
489,EDDIES CORNER,US-87 & US-191,Moore,MT,815,3.749,3.749,46.975,-109.6949,91,46.97748,-109.69229,,"EDDIES CORNER, Moore, MT",3,OK,done
491,One9 #403,"I-75, EXIT 117",Heiskell,TN,405,2.999,2.999,nan,nan,92,36.10394,-84.02257,,"One9 #403, I-75, EXIT 117, Heiskell, TN",1,OK,done
496,PILOT TRAVEL CENTERS #270,"I-40 & I-75, EXIT 374",Knoxville,TN,405,3.439,3.439,35.9692,-83.9496,93,35.91229,-83.95598,,"PILOT TRAVEL CENTERS #270, I-40 & I-75, EXIT 374, Knoxville, TN",1,OK,done
509,LOVES TRAVEL STOPS #256,"I-10, EXIT 140B",Van Horn,TX,640,3.649,3.649,31.0407,-104.8341,94,31.03628,-104.83879,,"LOVES TRAVEL STOPS #256, I-10, EXIT 140B, Van Horn, TX",1,OK,done
522,GO MART FOOD STORE #57,"I-70 & ST-285, EXIT 186",Lore City,OH,430,3.179,3.179,39.9832,-81.46,95,39.98372,-81.45912,,"GO MART FOOD STORE #57, I-70 & ST-285, EXIT 186, Lore City, OH",1,OK,done
523,CIRCLE K #2723322,"I-985, EXIT 20 & SR-60",Gainesville,GA,18,3.26566666,3.26566666,34.2902,-83.8294,96,,,"ERROR: 403 Denied: {""message"":""Missing Authentication Token""}",,99,ERROR,not done
525,FASTBREAK,US-45 ALT,West Point,MS,705,3.059,3.059,33.6064,-88.6572,97,33.59188,-88.65861,,"FASTBREAK, US-45 ALT, West Point, MS",1,OK,done
546,PLAZA 30,US-30,Wanatah,IN,365,3.499,3.499,41.4305,-86.8926,98,41.43393,-86.89103,,"PLAZA 30, US-30, Wanatah, IN",1,OK,done
557,SAPP BROS TRAVEL CENTER,"I-80, EXIT 73",Peru,IL,290,3.429,3.589,41.3482,-89.1371,99,41.33282,-89.10968,,"SAPP BROS TRAVEL CENTER, I-80, EXIT 73, Peru, IL",1,OK,done
559,SHELL MORGAN ROAD TRUCK STOP,"I-40, EXIT 142",Maumelle,AR,695,3.20733333,3.20733333,34.8522,-92.4,100,,,"ERROR: 403 Denied: {""message"":""Missing Authentication Token""}",,99,ERROR,not done
566,TA GARY TRAVEL CENTER,"I-80/I-94, EXIT 6",Gary,IN,365,3.83066666,3.83066666,41.5905,-87.3473,101,,,"ERROR: 403 Denied: {""message"":""Missing Authentication Token""}",,99,ERROR,not done
567,TA ELOY TRAVEL CENTER,"I-10 & I-8, EXIT 203",Eloy,AZ,930,3.459,3.459,32.747,-111.5992,102,,,"ERROR: 403 Denied: {""message"":""Missing Authentication Token""}",,99,ERROR,not done
572,PILOT TRAVEL CENTER #881,"I-69, EXIT 309A",Fort Wayne,IN,370,3.889,3.899,41.0888,-85.1436,103,41.1181,-85.18481,,"PILOT TRAVEL CENTER #881, I-69, EXIT 309A, Fort Wayne, IN",1,OK,done
576,PETRO STOPPING CENTER #343,"I-10, EXIT 76",Egan,LA,600,3.624,3.624,30.246,-92.5135,104,,,"ERROR: 403 Denied: {""message"":""Missing Authentication Token""}",,99,ERROR,not done
578,LOVES TRAVEL STOP #449,"I-84, EXIT 17",Troutdale,OR,935,3.779,3.779,45.5372,-122.3955,105,45.54405,-122.39167,,"LOVES TRAVEL STOP #449, I-84, EXIT 17, Troutdale, OR",1,OK,done
579,FLYING J TRAVEL PLAZA #764,"I-80, EXIT 104 & US-191",Rock Springs,WY,835,3.67066666,3.67066666,41.5947,-109.2209,106,41.60906,-109.23058,,"FLYING J TRAVEL PLAZA #764, I-80, EXIT 104 & US-191, Rock Springs, WY",1,OK,done
586,AMERISTAR TRAVEL PLAZA #120,"I-82, EXIT 80",Prosser,WA,925,4.479,4.559,46.2068,-119.7663,107,46.22417,-119.7967,,"AMERISTAR TRAVEL PLAZA #120, I-82, EXIT 80, Prosser, WA",1,OK,done
588,TA TUSCALOOSA TRAVEL CENTER,"I-20/I-59, EXIT 77",Cottondale,AL,615,2.964,2.964,33.1923,-87.4543,108,33.17281,-87.45245,,"TA TUSCALOOSA TRAVEL CENTER, I-20/I-59, EXIT 77, Cottondale, AL",1,OK,done
591,TA Concordia Travel Plaza,"I-70, EXIT 58 & SR-23",Concordia,MO,400,3.22566666,3.22566666,38.9878,-93.5683,109,38.99212,-93.5713,,"I-70 EXIT 58, Concordia, MO",4,OK,done
599,Sapp Bros Travel Center,"I-80, EXIT 59 & SR-17J",Sidney,NE,475,3.50066666,3.50066666,41.1341,-102.9681,110,,,"ERROR: 403 Denied: {""message"":""Missing Authentication Token""}",,99,ERROR,not done
602,JIFFY MART EXIT 18 TRUCK STOP,"I-89/SR-120, EXIT 18 & SR-120",Lebanon,NH,12,3.599,3.599,43.6353,-72.2531,111,43.64991,-72.25338,,"JIFFY MART EXIT 18 TRUCK STOP, I-89/SR-120, EXIT 18 & SR-120, Lebanon, NH",1,OK,done
614,TA MAYBROOK TRAVEL CENTER,"I-84, EXIT 5",Montgomery,NY,120,4.359,4.359,nan,nan,112,41.48616,-74.22797,,"TA MAYBROOK TRAVEL CENTER, I-84, EXIT 5, Montgomery, NY",1,OK,done
628,KWIK FILL #227,"I-90,  EXIT 218",Geneva,OH,305,3.15233333,3.15233333,41.8007,-80.9461,113,41.76914,-80.95032,,"KWIK FILL #227, I-90,  EXIT 218, Geneva, OH",1,OK,done
629,FLYING J #850,TCH-16,Edmonton,AB,80,4.400735465,4.40695023,nan,nan,114,53.51275,-113.37354,,"FLYING J #850, TCH-16, Edmonton, AB",1,OK,done
636,UNION 76,"I-5, EXIT 233 E",Albany,OR,935,3.379,3.379,44.6272,-123.0965,115,45.56631,-117.91159,,"UNION 76, I-5, EXIT 233 E, Albany, OR",1,OK,done
651,ONE9 #1366,"I-40, EXIT 126 & US-641",Holladay,TN,460,2.98566666,2.98566666,35.872,-88.1449,116,35.83935,-88.0879,,"ONE9 #1366, I-40, EXIT 126 & US-641, Holladay, TN",1,OK,done
652,TA KNOXVILLE EAST TRAVEL CENTER,"I-40 & I-75, EXIT 374",Knoxville,TN,405,3.42566666,3.42566666,35.9692,-83.9496,117,35.92006,-84.08243,,"TA KNOXVILLE EAST TRAVEL CENTER, I-40 & I-75, EXIT 374, Knoxville, TN",1,OK,done
659,FLYING J #869,HWY 2 SOUTH,Nanton,AB,50,4.563321978333334,4.60231851,nan,nan,118,50.34187,-113.76657,,"FLYING J #869, Nanton, AB",3,OK,done
669,PETRO STOPPING CENTER #350,"I-10,  EXIT 4",Canutillo,TX,640,3.499,3.499,31.9185,-106.6006,119,31.95793,-106.58003,,"PETRO STOPPING CENTER #350, I-10,  EXIT 4, Canutillo, TX",1,OK,done
672,CROWN POINT TRUCK STOP,"I-295/US-130,EXIT 22",Thorofare,NJ,150,3.549,3.549,39.8515,-75.1988,120,39.84201,-75.19725,,"CROWN POINT TRUCK STOP, I-295/US-130,EXIT 22, Thorofare, NJ",1,OK,done
680,TA EXPRESS SUMMIT,"I-29, EXIT 207 & US-12",Summit,SD,566,3.20566666,3.20566666,45.3056,-97.0391,121,45.31127,-97.04643,,"TA EXPRESS SUMMIT, I-29, EXIT 207 & US-12, Summit, SD",1,OK,done
684,7-ELEVEN #35101,"I-86/SR-17, EXIT 16",Randolph,NY,38,4.499,4.499,nan,nan,122,42.15869,-78.99106,,"7-ELEVEN #35101, I-86/SR-17, EXIT 16, Randolph, NY",1,OK,done
689,FLYING EAGLE,"I-235, EXIT 4",Wichita,KS,570,3.499,3.499,37.6895,-97.3443,123,37.68021,-97.42653,,"FLYING EAGLE, I-235, EXIT 4, Wichita, KS",1,OK,done
692,BP,US-63,Ottumwa,IA,489,3.399,3.399,41.0195,-92.4186,124,41.04396,-92.41459,,"BP, US-63, Ottumwa, IA",1,OK,done
739,Arco #364420,US-23,Greenup,KY,255,3.649,3.649,38.5578,-82.8191,125,38.72865,-82.92814,,"Arco #364420, US-23, Greenup, KY",1,OK,done
748,QUIKTRIP #4231,US-85,Evans,CO,800,3.17233333,3.17233333,40.366,-104.739,126,40.38528,-104.68942,,"QUIKTRIP #4231, US-85, Evans, CO",1,OK,done
769,AYERCO #26,US-61/US-136,Alexandria,MO,345,3.01566666,3.01566666,40.3598,-91.4595,127,40.37434,-91.44696,,"AYERCO #26, US-61/US-136, Alexandria, MO",1,OK,done
815,Kwik Trip #1508,"US-18/SR-151, EXIT 58",Barneveld,WI,420,3.489,3.489,43.0117,-89.8969,128,43.0101,-89.89738,,"Kwik Trip #1508, US-18/SR-151, EXIT 58, Barneveld, WI",1,OK,done
855,SPEEDWAY #7459,US-41 & SR-137,North Chicago,IL,293,3.389,3.499,42.3172,-87.8595,129,41.91037,-87.71634,,"SPEEDWAY #7459, US-41 & SR-137, North Chicago, IL",1,OK,done
863,Ocean Fuel,US-301/SR-73,Sylvania,GA,195,3.499,3.499,32.7466,-81.6409,130,32.74967,-81.63816,,"Ocean Fuel, US-301/SR-73, Sylvania, GA",1,OK,done
906,PILOT TRAVEL CENTERS #429,"I-40, EXIT 280",West Memphis,AR,435,3.395,3.499,35.153,-90.1996,131,35.16957,-90.19436,,"PILOT TRAVEL CENTERS #429, I-40, EXIT 280, West Memphis, AR",1,OK,done
908,CIRCLE K #2704888,"I-65, EXIT 246 & SR-119",Pelham,AL,615,3.46566666,3.46566666,33.3114,-86.7573,132,33.33252,-86.78869,,"CIRCLE K #2704888, I-65, EXIT 246 & SR-119, Pelham, AL",1,OK,done
912,PETRO STOPPING CENTER #319,"I-20/59,  EXIT 100",Mc Calla,AL,615,3.12566666,3.12566666,nan,nan,133,33.27961,-87.09252,,"PETRO STOPPING CENTER #319, I-20/59,  EXIT 100, Mc Calla, AL",1,OK,done
936,CASEYS #4254,"I-40, EXIT 129",Conway,AR,695,3.03233333,3.03233333,35.0753,-92.4692,134,35.01155,-92.40578,,"CASEYS #4254, I-40, EXIT 129, Conway, AR",1,OK,done
970,CIRCLE K #2702885,"I-17/SR-60, EXIT 199A",Phoenix,AZ,930,3.39233333,3.39233333,33.5722,-112.0892,135,33.886,-112.07424,,"CIRCLE K #2702885, I-17/SR-60, EXIT 199A, Phoenix, AZ",1,OK,done
977,PILOT TRAVEL CENTER #328,"I-10, EXIT 17",Quartzsite,AZ,930,3.959,3.959,33.6675,-114.2171,136,33.66134,-114.23654,,"PILOT TRAVEL CENTER #328, I-10, EXIT 17, Quartzsite, AZ",1,OK,done
981,STINKER #85,"I-15, EXIT 93",Blackfoot,ID,825,3.53233333,3.53233333,43.194,-112.3454,137,43.19557,-112.36634,,"STINKER #85, I-15, EXIT 93, Blackfoot, ID",1,OK,done
982,CIRCLE K #2701948,"I-8, EXIT 7 & SR-195",Yuma,AZ,900,3.56566666,3.56566666,32.5995,-114.5491,138,,,"ERROR: 403 Denied: {""message"":""Missing Authentication Token""}",,99,ERROR,not done
1028,FOUR STATES TRUCK STOP,"I-495, EXIT 4 & SR-9",New Castle,DE,243,3.424,3.449,39.6681,-75.5697,139,39.72142,-75.53872,,"FOUR STATES TRUCK STOP, I-495, EXIT 4 & SR-9, New Castle, DE",1,OK,done
1042,Union 76,US-441 & SR-100A,Lake City,FL,75,3.56233333,3.56233333,30.1901,-82.6471,140,30.18949,-82.6373,,"Union 76, US-441 & SR-100A, Lake City, FL",1,OK,done
1043,ONE9 #1401,I-75 EXIT 414  & US-41,Lake City,FL,75,3.2515,3.259,30.1901,-82.6471,141,30.18484,-82.63959,,"ONE9 #1401, I-75 EXIT 414  & US-41, Lake City, FL",1,OK,done
1047,TA MARIANNA TRAVEL CENTER,"I-10/SR-8, EXIT 142 & SR-71",Marianna,FL,20,3.60733333,3.60733333,30.7943,-85.2259,142,,,"ERROR: 403 Denied: {""message"":""Missing Authentication Token""}",,99,ERROR,not done
1075,PILOT TRAVEL CENTER #68,"I-16 /SR-404, EXIT 51 & US-441",Dublin,GA,85,3.415666665,3.43233333,32.536,-82.928,143,32.49038,-82.93425,,"PILOT TRAVEL CENTER #68, I-16 /SR-404, EXIT 51 & US-441, Dublin, GA",1,OK,done
1106,CIRCLE K #2705367,"I-20, EXIT 172",Thomson,GA,16,3.399,3.399,33.4679,-82.4968,144,33.51147,-82.50264,,"CIRCLE K #2705367, I-20, EXIT 172, Thomson, GA",1,OK,done
1112,BC AMPRIDE TRUCK PLAZA,US-59/SR-141,Denison,IA,527,3.399,3.399,42.0162,-95.3528,145,42.0223,-95.37082,,"BC AMPRIDE TRUCK PLAZA, US-59/SR-141, Denison, IA",1,OK,done
1115,KWIK STAR #704,SR-57/SR-14,Parkersburg,IA,565,3.58233333,3.58233333,42.5739,-92.7785,146,42.57292,-92.79043,,"KWIK STAR #704, SR-57/SR-14, Parkersburg, IA",1,OK,done
1121,TRAVELERS OASIS,"I-84, EXIT 182",Eden,ID,787,3.799,3.799,42.6053,-114.209,147,42.57505,-114.297,,"TRAVELERS OASIS, I-84, EXIT 182, Eden, ID",1,OK,done
1128,TA CHICAGO NORTH TRAVEL CENTER,"I-94/US-41, EXIT 1",Wadsworth,IL,444,3.8115,3.879,42.4448,-87.9202,148,42.48666,-87.95102,,"TA CHICAGO NORTH TRAVEL CENTER, I-94/US-41, EXIT 1, Wadsworth, IL",1,OK,done
1132,SPEEDWAY #7423,"I-57, EXIT 83",Ina,IL,293,3.249,3.249,38.1499,-88.904,149,38.15443,-88.91021,,"SPEEDWAY #7423, I-57, EXIT 83, Ina, IL",1,OK,done
1136,PILOT TRAVEL CENTER #171,"I-74, EXIT 206",Oakwood,IL,280,3.499,3.599,40.1101,-87.7769,150,40.12365,-87.7786,,"PILOT TRAVEL CENTER #171, I-74, EXIT 206, Oakwood, IL",1,OK,done
1140,CIRCLE K #4701398,"I-55, EXIT 82 & SR-104",Divernon,IL,280,3.499,3.499,39.5707,-89.6547,151,39.59068,-89.64501,,"CIRCLE K #4701398, I-55, EXIT 82 & SR-104, Divernon, IL",1,OK,done
1149,PILOT TRAVEL CENTER #30,"I-70, EXIT 96",Greenfield,IN,375,3.959,3.959,39.7937,-85.7738,152,39.821,-85.91674,,"PILOT TRAVEL CENTER #30, I-70, EXIT 96, Greenfield, IN",1,OK,done
1151,SPEEDWAY #8061,"I-70, EXIT 115 & SR-109",Knightstown,IN,375,3.759,3.759,39.7959,-85.5312,153,39.79619,-85.53196,,"SPEEDWAY #8061, I-70, EXIT 115 & SR-109, Knightstown, IN",1,OK,done
1154,CIRCLE K #2704691,SR-71 & CR-214,Cedar Creek,TX,595,3.199,3.199,30.0811,-97.518,154,30.12108,-97.43262,,"CIRCLE K #2704691, SR-71 & CR-214, Cedar Creek, TX",1,OK,done
1156,CIRCLE K #4700028,"I-74/US-421, EXIT 116 & SR-44",Shelbyville,IN,375,3.599,3.599,39.5352,-85.7793,155,39.5232,-85.77425,,"CIRCLE K #4700028, I-74/US-421, EXIT 116 & SR-44, Shelbyville, IN",1,OK,done
1157,One9 #297,"I-70, EXIT 11 & SR-46",Terre Haute,IN,510,3.43566666,3.43566666,39.466,-87.3751,156,39.43996,-87.51491,,"One9 #297, I-70, EXIT 11 & SR-46, Terre Haute, IN",1,OK,done
1158,PILOT TRAVEL CENTERS #36,US-30  & SR-49,Valparaiso,IN,365,3.864,3.869,41.4783,-87.0506,157,41.4483,-87.01032,,"PILOT TRAVEL CENTERS #36, US-30  & SR-49, Valparaiso, IN",1,OK,done
1163,SHORT STOP #13,US-54,Emporia,KS,553,2.839,2.839,38.4028,-96.1932,158,38.40758,-96.2132,,"SHORT STOP #13, US-54, Emporia, KS",1,OK,done
1176,PILOT TRAVEL CENTERS #353,"I-75, EXIT 129",Georgetown,KY,410,3.20566666,3.20566666,38.2247,-84.5487,159,38.27607,-84.5534,,"PILOT TRAVEL CENTERS #353, I-75, EXIT 129, Georgetown, KY",1,OK,done
1179,PILOT TRAVEL CENTERS #399,"I-65, EXIT 105",Lebanon Junction,KY,415,3.609,3.609,37.8357,-85.7243,160,37.82728,-85.72388,,"PILOT TRAVEL CENTERS #399, I-65, EXIT 105, Lebanon Junction, KY",1,OK,done
1196,SOUTHERN BELLE TRUCK STOP,US-61 & SR-964,Saint Francisville,LA,725,3.384,3.384,nan,nan,161,30.74885,-91.29352,,"SOUTHERN BELLE TRUCK STOP, US-61 & SR-964, Saint Francisville, LA",1,OK,done
1199,ALLTOWN MARKETS #306,"I-190, EXIT 7",Leominster,MA,178,3.68233333,3.68233333,42.5209,-71.7717,162,42.49373,-71.72678,,"ALLTOWN MARKETS #306, I-190, EXIT 7, Leominster, MA",1,OK,done
1202,ONE9 #290,"I-95, EXIT 93 & SR-222",Perryville,MD,22,3.599,3.599,39.5737,-76.0668,163,39.59057,-76.06193,,"ONE9 #290, I-95, EXIT 93 & SR-222, Perryville, MD",1,OK,done
1204,PETRO STOPPING CENTER #321,"I-70 & I-57, EXIT 159",Effingham,IL,574,3.434,3.549,39.1205,-88.5509,164,39.12235,-88.57355,,"PETRO STOPPING CENTER #321, I-70 & I-57, EXIT 159, Effingham, IL",1,OK,done
1208,D AVENUE FUEL PLAZA,US-131,Kalamazoo,MI,465,3.2990000000000004,3.499,42.2749,-85.5882,165,42.37666,-85.58914,,"D AVENUE FUEL PLAZA, US-131, Kalamazoo, MI",1,OK,done
1210,ROADHAWK TRAVEL CENTER,"I-94, EXIT 56 & SR-51",Paw Paw,MI,465,3.579,3.599,42.2148,-85.8919,166,,,"ERROR: 403 Denied: {""message"":""Missing Authentication Token""}",,99,ERROR,not done
1217,KWIK TRIP #250,"I-90, EXIT 179",Austin,MN,515,3.374,3.374,43.6721,-92.9784,167,43.66591,-92.97341,,"KWIK TRIP #250, I-90, EXIT 179, Austin, MN",1,OK,done
1218,CASEYS #3658,SR-210,Pillager,MN,522,3.299,3.299,46.3295,-94.4796,168,46.333,-94.47057,,"CASEYS #3658, SR-210, Pillager, MN",1,OK,done
1225,AYERCO #35,US-61 & US-61 BUS,Bowling Green,MO,494,3.01566666,3.01566666,39.3447,-91.2032,169,39.32971,-91.1959,,"AYERCO #35, US-61 & US-61 BUS, Bowling Green, MO",1,OK,done
1234,Lamar Travel Plaza,US-71 & US-160,Lamar,MO,416,3.199,3.199,37.4945,-94.2791,170,37.4943,-94.30095,,"Lamar Travel Plaza, US-71 & US-160, Lamar, MO",1,OK,done
1236,AYERCO #44,US-36 & US-24,Palmyra,MO,494,3.01566666,3.01566666,39.7978,-91.5265,171,39.69217,-91.50918,,"AYERCO #44, US-36 & US-24, Palmyra, MO",1,OK,done
1240,TEMP STOP #103,US-65,Sedalia,MO,400,3.199,3.199,38.7059,-93.234,172,38.71161,-93.24995,,"TEMP STOP #103, US-65, Sedalia, MO",1,OK,done
1247,SNAPPY MART #11,US-63 & SR-14,West Plains,MO,535,3.299,3.299,36.7377,-91.868,173,36.82112,-92.0974,,"SNAPPY MART #11, US-63 & SR-14, West Plains, MO",1,OK,done
1251,MAPCO #3009,US-72,Corinth,MS,435,3.154,3.154,34.9474,-88.5143,174,34.93081,-88.5539,,"MAPCO #3009, US-72, Corinth, MS",1,OK,done
1256,DOUBLE QUICK #89,US-82/US-278,Greenville,MS,655,3.25566666,3.25566666,33.385,-91.0514,175,33.40833,-91.06055,,"DOUBLE QUICK #89, US-82/US-278, Greenville, MS",1,OK,done
1265,JOE JOES TRAVEL CENTER,US-78 & RED BANKS RD S,Red Banks,MS,435,2.97233333,2.97233333,34.8347,-89.5634,176,34.82392,-89.56474,,"JOE JOES TRAVEL CENTER, US-78 & RED BANKS RD S, Red Banks, MS",1,OK,done
1304,LOVES TRAVEL STOP #667,"I-85, EXIT 152",Mebane,NC,65,3.94733333,3.94733333,36.0852,-79.2736,177,36.06808,-79.31326,,"LOVES TRAVEL STOP #667, I-85, EXIT 152, Mebane, NC",1,OK,done
1315,CIRCLE K #2720218,US-421 BUS & US-15/US-501/US-1,Sanford,NC,177,3.08233333,3.08233333,35.4875,-79.177,178,35.40166,-79.23516,,"CIRCLE K #2720218, US-421 BUS & US-15/US-501/US-1, Sanford, NC",1,OK,done
1325,SCOTCHMAN #3303,US-421 & US-74,Wilmington,NC,245,3.629,3.629,34.2099,-77.8866,179,34.25287,-77.95666,,"SCOTCHMAN #3303, US-421 & US-74, Wilmington, NC",1,OK,done
1326,SPEEDWAY #7949,US-301/US-264 ALT & CR-1674,Wilson,NC,205,3.199,3.199,35.7311,-77.9284,180,35.71524,-77.8947,,"SPEEDWAY #7949, US-301/US-264 ALT & CR-1674, Wilson, NC",1,OK,done
1333,PUMP & PANTRY #15,US-30,Grand Island,NE,330,3.30733333,3.30733333,40.9218,-98.3586,181,40.94067,-98.35931,,"PUMP & PANTRY #15, US-30, Grand Island, NE",1,OK,done
1340,BORDENTOWN VALERO,"NJ TNPK, EXIT 7 & US-206",Bordentown,NJ,230,3.499,3.499,nan,nan,182,40.15942,-74.69967,,"BORDENTOWN VALERO, NJ TNPK, EXIT 7 & US-206, Bordentown, NJ",1,OK,done
1342,Delta,"I-80, EXIT 47B",Fairfield,NJ,115,3.20233333,3.20233333,nan,nan,183,40.88833,-74.2771,,"Delta, Fairfield, NJ",3,OK,done
1344,BOLLA TRUCK STOP #193,US-202 & SR-17,Mahwah,NJ,115,3.53233333,3.53233333,nan,nan,184,41.10611,-74.15085,,"BOLLA TRUCK STOP #193, US-202 & SR-17, Mahwah, NJ",1,OK,done
1348,GLOBAL,SR-73,Palmyra,NJ,150,3.359,3.359,40.0025,-75.036,185,40.00362,-75.02185,,"GLOBAL, SR-73, Palmyra, NJ",1,OK,done
1356,LOVES TRAVEL STOP #257,"I-40 & HORIZON, EXIT 79",Milan,NM,580,3.59066666,3.59066666,35.1949,-107.8946,186,35.18303,-107.89965,,"LOVES TRAVEL STOP #257, I-40 & HORIZON, EXIT 79, Milan, NM",1,OK,done
1364,7- ELEVEN #40507,"I-80/I-90, MM 56 WB",Rolling Prairie,IN,465,3.98233333,3.98233333,41.6743,-86.6207,187,41.67067,-86.61564,,"7- ELEVEN #40507, I-80/I-90, MM 56 WB, Rolling Prairie, IN",1,OK,done
1372,PILOT TRAVEL CENTER #469,"I-77, EXIT 101 & SR-627",Canton,OH,249,3.62233333,3.62233333,40.8078,-81.3676,188,40.74985,-81.40322,,"PILOT TRAVEL CENTER #469, I-77, EXIT 101 & SR-627, Canton, OH",1,OK,done
1376,FUEL MART #782,"I-75, EXIT 118",Lima,OH,411,3.08566666,3.08566666,40.741,-84.112,189,40.65398,-84.13285,,"FUEL MART #782, I-75, EXIT 118, Lima, OH",1,OK,done
1379,TA LODI TRAVEL CENTER,"I-71, EXIT 209 & I-76/US-224, EXIT 1",Seville,OH,305,3.739,3.739,41.0207,-81.8671,190,,,"ERROR: 403 Denied: {""message"":""Missing Authentication Token""}",,99,ERROR,not done
1384,SUNOCO,"I-80/I-90, EXIT 13 & US-20ALT/SR-15",Montpelier,OH,550,3.41566666,3.41566666,41.5817,-84.5968,191,41.60904,-84.55575,,"SUNOCO, I-80/I-90, EXIT 13 & US-20ALT/SR-15, Montpelier, OH",1,OK,done
1391,ONCUE EXPRESS #2045,"I-35, EXIT 203 & SR-15",Billings,OK,500,3.21566666,3.21566666,36.5316,-97.4352,192,36.53525,-97.43329,,"ONCUE EXPRESS #2045, I-35, EXIT 203 & SR-15, Billings, OK",1,OK,done
1395,DOMINO FOOD AND FUEL #1,"I-40, EXIT 66",Clinton,OK,483,3.099,3.099,35.5069,-98.9706,193,35.42669,-99.21286,,"DOMINO FOOD AND FUEL #1, I-40, EXIT 66, Clinton, OK",1,OK,done
1404,ONE9 #339,"I-74, EXIT 4 & SR-63",Covington,IN,375,3.26233333,3.26233333,40.1408,-87.3917,194,40.12299,-87.45084,,"ONE9 #339, I-74, EXIT 4 & SR-63, Covington, IN",1,OK,done
1414,SAC SHOP #507,"I-70, EXIT 12/161",Breezewood,PA,14,4.099,4.099,nan,nan,195,39.98646,-78.26195,,"SAC SHOP #507, I-70, EXIT 12/161, Breezewood, PA",1,OK,done
1424,GETTYSBURG TRAVEL PLAZA,US-15 & SR-394,Gettysburg,PA,70,3.899,3.899,39.8304,-77.2339,196,39.8906,-77.18305,,"GETTYSBURG TRAVEL PLAZA, US-15 & SR-394, Gettysburg, PA",1,OK,done
1428,CIRCLE K #4702408,"I-65, EXIT 168 & SR-38/SR-25",Lafayette,IN,375,3.43233333,3.43233333,40.3991,-86.8593,197,40.41953,-86.96534,,"CIRCLE K #4702408, I-65, EXIT 168 & SR-38/SR-25, Lafayette, IN",1,OK,done
1432,KWIK FILL #259,"I-81, EXIT 57",Mechanicsburg,PA,70,4.049,4.049,40.2115,-77.006,198,40.24606,-77.01862,,"KWIK FILL #259, I-81, EXIT 57, Mechanicsburg, PA",1,OK,done
1444,PILOT TRAVEL CENTERS #346,"I-20, EXIT 92 & US-601",Lugoff,SC,135,3.43233333,3.43233333,34.2113,-80.6973,199,34.19215,-80.68697,,"PILOT TRAVEL CENTERS #346, Lugoff, SC",3,OK,done
1445,PILOT TRAVEL CENTERS #402,"I-80, EXIT 367",Cheyenne,WY,795,3.709,3.709,41.135,-104.7902,200,,,"ERROR: 403 Denied: {""message"":""Missing Authentication Token""}",,99,ERROR,not done
1447,HOT SPOT #3005,US-221,Chesnee,SC,210,3.199,3.199,35.1461,-81.863,201,35.15139,-81.8597,,"HOT SPOT #3005, US-221, Chesnee, SC",1,OK,done
1453,EXPRESS STOP,US-278/SR-101/SR-6 & SR-113,Rockmart,GA,193,3.319,3.319,34.0103,-85.044,202,34.00896,-85.07495,,"EXPRESS STOP, US-278/SR-101/SR-6 & SR-113, Rockmart, GA",1,OK,done
1455,PETRO FLORENCE,"I-95, EXIT 169",Florence,SC,46,3.32566666,3.32566666,34.178,-79.7898,203,34.26476,-79.73581,,"PETRO FLORENCE, I-95, EXIT 169, Florence, SC",1,OK,done
1461,CIRCLE K #2705370,"I-26, EXIT 15 & US-176",Inman,SC,210,3.099,3.099,35.0463,-82.0897,204,,,"ERROR: 403 Denied: {""message"":""Missing Authentication Token""}",,99,ERROR,not done
1464,CIRCLE K #2723254,"I-20, EXIT 55 & SR-6",Lexington,SC,135,3.199,3.199,33.989,-81.2202,205,34.00907,-81.25805,,"CIRCLE K #2723254, Lexington, SC",3,OK,done
1470,CIRCLE K #2705348,US-1,Beech Island,SC,135,3.159,3.159,33.4288,-81.8905,206,33.48798,-81.92618,,"CIRCLE K #2705348, US-1, Beech Island, SC",1,OK,done
1479,TA SPARTANBURG TRAVEL CENTER,"I-85, EXIT 63 & SR-290",Duncan,SC,210,3.43233333,3.43233333,34.9342,-82.1443,207,34.9507,-82.22092,,"TA SPARTANBURG TRAVEL CENTER, I-85, EXIT 63 & SR-290, Duncan, SC",1,OK,done
1487,ROADRUNNER MARKET #6019,"I-81, EXIT 36 NORTH",Greeneville,TN,405,3.499,3.499,36.168,-82.8197,208,,,"ERROR: 403 Denied: {""message"":""Missing Authentication Token""}",,99,ERROR,not done
1492,MAPCO #3538,"I-24, EXIT 174",Chattanooga,TN,285,2.899,2.899,35.066,-85.2481,209,35.01645,-85.38549,,"MAPCO #3538, I-24, EXIT 174, Chattanooga, TN",1,OK,done
1507,CIRCLE K #4703941,"I-55, EXIT 5A",Memphis,TN,435,3.189,3.189,35.1087,-89.9663,210,35.06927,-89.85705,,"CIRCLE K #4703941, I-55, EXIT 5A, Memphis, TN",1,OK,done
1516,LOVES TRAVEL STOP #261,I-27 EXIT 116,Amarillo,TX,585,3.23233333,3.23233333,35.1984,-101.8316,211,35.11768,-101.90718,,"LOVES TRAVEL STOP #261, I-27 EXIT 116, Amarillo, TX",1,OK,done
1531,CircleK #4702365,"I-74, EXIT 112 & SR-9",Shelbyville,IN,375,3.509,3.509,39.5352,-85.7793,212,39.52329,-85.77684,,"CircleK #4702365, I-74, EXIT 112 & SR-9, Shelbyville, IN",1,OK,done
1533,YESWAY #1157,US-62,Brownfield,TX,700,2.99233333,2.99233333,33.1757,-102.273,213,33.23177,-102.25811,,"YESWAY #1157, US-62, Brownfield, TX",1,OK,done
1546,SHELL,"I-35, EXIT 86 & SR-85",Dilley,TX,740,3.099,3.099,28.6675,-99.1765,214,28.66749,-99.18444,,"SHELL, I-35, EXIT 86 & SR-85, Dilley, TX",1,OK,done
1548,TOOT N TOTUM #107,US-287,Dumas,TX,585,3.03233333,3.03233333,35.8613,-101.9642,215,35.86552,-101.96929,,"TOOT N TOTUM #107, US-287, Dumas, TX",1,OK,done
1552,STRIPES #40911,US-59 & SR-16,Freer,TX,625,3.099,3.099,27.8823,-98.6178,216,27.88241,-98.6186,,"STRIPES #40911, US-59 & SR-16, Freer, TX",1,OK,done
1555,SEIBERT TRAVEL PLAZA,"I-70, EXIT 405 & SR-59",Seibert,CO,800,3.499,3.499,39.298,-102.8695,217,39.30133,-102.87377,,"SEIBERT TRAVEL PLAZA, I-70, EXIT 405 & SR-59, Seibert, CO",1,OK,done
1560,CATTREZ,US-20 & SR-5,Irving,NY,38,2.949,2.999,nan,nan,218,42.56796,-79.10407,,"CATTREZ, US-20 & SR-5, Irving, NY",1,OK,done
1562,I MART #108,"I-40, EXIT 108",Wildersville,TN,435,3.099,3.099,35.7766,-88.3561,219,35.78856,-88.39494,,"I MART #108, I-40, EXIT 108, Wildersville, TN",1,OK,done
1567,KUM & GO #4110,"I-235, EXIT 11",Des Moines,IA,320,3.02733333,3.02733333,41.5725,-93.6105,220,41.61074,-93.57874,,"KUM & GO #4110, I-235, EXIT 11, Des Moines, IA",1,OK,done
1579,FLYING J TRAVEL PLAZA #924- TOWN PUMP,"I-15, EXIT 122 & I-90 MM220",Butte,MT,816,3.56566666,3.56566666,45.902,-112.6571,221,46.00803,-112.60586,,"FLYING J TRAVEL PLAZA #924- TOWN PUMP, I-15, EXIT 122 & I-90 MM220, Butte, MT",1,OK,done
1582,LOVES TRAVEL STOP #250,I-40 EXIT 60,Amarillo,TX,585,3.314,3.314,35.1984,-101.8316,222,35.18925,-102.01111,,"LOVES TRAVEL STOP #250, I-40 EXIT 60, Amarillo, TX",1,OK,done
1585,Stripes 7Fleet #42498,US-385 & CR-1910,Andrews,TX,710,3.369,3.369,32.3207,-102.552,223,32.34421,-102.55438,,"Stripes 7Fleet #42498, US-385 & CR-1910, Andrews, TX",1,OK,done
1590,ROAD RANGER #240,"I-80 & I-94, EXIT 15-A",Lake Station,IN,365,3.559,3.559,41.5729,-87.2599,224,41.58174,-87.24435,,"ROAD RANGER #240, I-80 & I-94, EXIT 15-A, Lake Station, IN",1,OK,done
1596,FLYING J #305,"I-40, EXIT 39",Jamestown,NM,580,3.44233333,3.44233333,35.4692,-108.4396,225,35.47872,-108.43756,,"FLYING J #305, I-40, EXIT 39, Jamestown, NM",1,OK,done
1597,7-ELEVEN #36156,"I-70 & SR-519, EXIT 25/333",Eighty Four,PA,165,4.999,4.999,40.1777,-80.1303,226,40.15551,-80.12629,,"7-ELEVEN #36156, I-70 & SR-519, EXIT 25/333, Eighty Four, PA",1,OK,done
1599,ONVO TRAVEL PLAZA,"I-81, EXIT 10",Mc Graw,NY,220,3.449,3.459,nan,nan,227,42.59055,-76.13176,,"ONVO TRAVEL PLAZA, I-81, EXIT 10, Mc Graw, NY",1,OK,done
1602,CIRCLE K #2723387,US-98,Beaumont,MS,620,3.56566666,3.56566666,31.1707,-88.9252,228,31.12668,-88.85102,,"CIRCLE K #2723387, Beaumont, MS",3,OK,done
1606,DONNAS TRAVEL PLAZA,"I-5, EXIT 202",Marysville,WA,962,4.559,4.559,48.0809,-122.1561,229,48.09979,-122.18856,,"DONNAS TRAVEL PLAZA, I-5, EXIT 202, Marysville, WA",1,OK,done
1610,TA BALTIMORE TRAVEL CENTER,"I-95, EXIT 57",Baltimore,MD,22,4.759,4.759,39.3051,-76.6144,230,39.35518,-76.48857,,"TA BALTIMORE TRAVEL CENTER, I-95, EXIT 57, Baltimore, MD",1,OK,done
1618,GO MART FOOD STORE #33,US-33,Ripley,WV,44,3.499,3.499,38.8201,-81.7091,231,38.76093,-81.69396,,"GO MART FOOD STORE #33, US-33, Ripley, WV",1,OK,done
1621,CIRCLE K #2709337,"I-65, EXIT 262B",Birmingham,AL,615,3.489,3.489,33.5279,-86.7971,232,33.54389,-86.8269,,"CIRCLE K #2709337, I-65, EXIT 262B, Birmingham, AL",1,OK,done
1622,RACEWAY #6973,US-380 & SR-114/SR-101,Bridgeport,TX,630,2.78233333,2.78233333,33.21,-97.7708,233,33.22418,-97.76845,,"RACEWAY #6973, US-380 & SR-114/SR-101, Bridgeport, TX",1,OK,done
1623,SAPP BROS TRAVEL CENTER,"I-70 & I-270, EXIT 278",Commerce City,CO,800,3.389,3.389,39.8641,-104.843,234,39.79824,-104.93079,,"SAPP BROS TRAVEL CENTER, I-70 & I-270, EXIT 278, Commerce City, CO",1,OK,done
1625,PILOT TRAVEL CENTERS #60,"I-26, EXIT 159",Bowman,SC,42,3.43233333,3.43233333,33.3483,-80.6843,235,33.41701,-80.66639,,"PILOT TRAVEL CENTERS #60, I-26, EXIT 159, Bowman, SC",1,OK,done
1632,PILOT TRAVEL CENTERS #266,"I-10, EXIT 139 & SR-292",Las Cruces,NM,640,3.19066666,3.19066666,32.3265,-106.7893,236,32.29765,-106.81285,,"PILOT TRAVEL CENTERS #266, I-10, EXIT 139 & SR-292, Las Cruces, NM",1,OK,done
1633,7-ELEVEN #36302,"I-35, EXIT 144",Von Ormy,TX,740,3.109,3.109,29.2803,-98.6556,237,29.30956,-98.61523,,"7-ELEVEN #36302, I-35, EXIT 144, Von Ormy, TX",1,OK,done
1634,PILOT TRAVEL CENTERS #40,"I-94, EXIT 322",Oak Creek,WI,444,3.889,3.889,42.8803,-87.9009,238,42.87217,-87.94425,,"PILOT TRAVEL CENTERS #40, I-94, EXIT 322, Oak Creek, WI",1,OK,done
1644,ALLSUPS CONVENIENCE STORE #2414,"I-20, EXIT 235",Roscoe,TX,575,2.929,2.929,32.4419,-100.5322,239,,,"ERROR: 403 Denied: {""message"":""Missing Authentication Token""}",,99,ERROR,not done
1646,SPEEDWAY #8310,US-6  & US-31,Plymouth,IN,465,3.609,3.609,41.3483,-86.3187,240,41.45022,-86.30861,,"SPEEDWAY #8310, US-6  & US-31, Plymouth, IN",1,OK,done
1647,SPEEDWAY #8305,US-41 & SR-312,Hammond,IN,290,3.76566666,3.76566666,41.6168,-87.4909,241,41.63279,-87.52434,,"SPEEDWAY #8305, US-41 & SR-312, Hammond, IN",1,OK,done
1653,ROAD RANGER #187,"I-55, EXIT 289",Chicago,IL,520,3.584,3.599,41.8375,-87.6866,242,41.79371,-87.61944,,"ROAD RANGER #187, I-55, EXIT 289, Chicago, IL",1,OK,done
1654,CEFCO #3,US-77/US190/SR-36,Cameron,TX,670,2.989,2.989,30.8608,-96.9763,243,30.85465,-97.00374,,"CEFCO #3, US-77/US190/SR-36, Cameron, TX",1,OK,done
1661,CHEVRON,"I-20, EXIT 101 & SR-151",Calhoun,LA,590,3.159,3.159,32.5153,-92.3539,244,32.51292,-92.35834,,"CHEVRON, I-20, EXIT 101 & SR-151, Calhoun, LA",1,OK,done
1669,BETTY BEAVERS TRUCKSTOP,"I-90, EXIT 28",Fultonville,NY,12,3.169,3.189,42.9463,-74.3704,245,42.94383,-74.3552,,"BETTY BEAVERS TRUCKSTOP, I-90, EXIT 28, Fultonville, NY",1,OK,done
1670,Petro Stopping Center #54,"I-44, EXIT 4 & SR-3",Joplin,MO,277,3.449,3.449,37.0757,-94.5018,246,37.00719,-94.55235,,"Petro Stopping Center #54, I-44, EXIT 4 & SR-3, Joplin, MO",1,OK,done
1671,LOVES TRAVEL STOP #412,"I-95, EXIT 77",Dunn,NC,205,3.699,3.699,35.3114,-78.6129,247,35.34029,-78.55703,,"LOVES TRAVEL STOP #412, I-95, EXIT 77, Dunn, NC",1,OK,done
1672,HANA TRAVEL PLAZA,"I-40,  EXIT 77",Amarillo,TX,585,2.899,2.899,35.1984,-101.8316,248,35.18712,-101.97347,,"HANA TRAVEL PLAZA, I-40,  EXIT 77, Amarillo, TX",1,OK,done
1699,ALLENS FOOD MART280,US-280/US-231/SR-53/SR-38 & CR-8/CR-34,Sylacauga,AL,615,3.799,3.799,33.178,-86.2605,249,33.16568,-86.27796,,"ALLENS FOOD MART280, US-280/US-231/SR-53/SR-38 & CR-8/CR-34, Sylacauga, AL",1,OK,done
1700,TOPPS FUEL STOPS,US-259/SR-49,Daingerfield,TX,723,3.109,3.109,33.0306,-94.725,250,33.04621,-94.72867,,"TOPPS FUEL STOPS, US-259/SR-49, Daingerfield, TX",1,OK,done
1720,TOOT N TOTUM #120,US-54 & S WESTERN AVE,Liberal,KS,585,3.01566666,3.01566666,37.0466,-100.9295,251,37.03754,-100.9406,,"TOOT N TOTUM #120, US-54 & S WESTERN AVE, Liberal, KS",1,OK,done
1749,HIGHWAY 96 FUEL STOP,US-96 & SR-62/FM-1004,Buna,TX,610,3.149,3.149,30.4458,-93.9625,252,30.44169,-93.9692,,"HIGHWAY 96 FUEL STOP, US-96 & SR-62/FM-1004, Buna, TX",1,OK,done
1753,PWI #169,"I-35/US-77, EXIT 359 & CR-1304",Abbott,TX,765,2.899,2.899,31.8868,-97.0799,253,31.8851,-97.08468,,"PWI #169, I-35/US-77, EXIT 359 & CR-1304, Abbott, TX",1,OK,done
1773,M-46 AUTO TRUCK PLAZA,"US-131, EXIT 120 & SR-46",Howard City,MI,344,3.299,3.599,43.3947,-85.4683,254,43.432,-85.45178,,"M-46 AUTO TRUCK PLAZA, US-131, EXIT 120 & SR-46, Howard City, MI",1,OK,done
1791,PILOT TRAVEL CENTERS #257,"I-20, EXIT 126 & FM-1788",Midland,TX,710,3.56566666,3.56566666,32.0243,-102.1147,255,31.9148,-102.21482,,"PILOT TRAVEL CENTERS #257, I-20, EXIT 126 & FM-1788, Midland, TX",1,OK,done
1807,LOVES TRAVEL STOP #229,I-40 EXIT 96 & SR-207,Panhandle,TX,585,3.314,3.314,35.3461,-101.3804,256,35.21887,-101.37762,,"LOVES TRAVEL STOP #229, I-40 EXIT 96 & SR-207, Panhandle, TX",1,OK,done
1810,KENT KWIK #804,US-83,Perryton,TX,585,2.999,2.999,36.3928,-100.7976,257,36.3745,-100.80319,,"KENT KWIK #804, US-83, Perryton, TX",1,OK,done
1829,PILOT TRAVEL CENTERS #96,"SR- 60 & FL TURNPIKE, EXIT 193",Okeechobee,FL,143,3.709,3.719,27.2413,-80.8298,258,27.69919,-80.90182,,"PILOT TRAVEL CENTERS #96, SR- 60 & FL TURNPIKE, EXIT 193, Okeechobee, FL",1,OK,done
1832,CORNER FUEL CENTER,US-49,Hattiesburg,MS,620,3.299,3.299,31.3074,-89.317,259,31.18805,-89.25117,,"CORNER FUEL CENTER, US-49, Hattiesburg, MS",1,OK,done
1834,PUMP N PANTRY #15,"I-20, EXIT 617 & US-59",Marshall,TX,766,2.899,2.899,32.537,-94.3515,260,32.4908,-94.3641,,"PUMP N PANTRY #15, I-20, EXIT 617 & US-59, Marshall, TX",1,OK,done
1849,Stripes #42457,US-67/US-277,San Angelo,TX,740,3.244,3.244,31.4424,-100.4504,261,31.47022,-100.43893,,"Stripes #42457, US-67/US-277, San Angelo, TX",1,OK,done
1855,EXIT 76 AUTO TRUCK PLAZA,US-131,Byron Center,MI,344,3.499,3.499,42.8121,-85.7279,262,42.79133,-85.66835,,"EXIT 76 AUTO TRUCK PLAZA, US-131, Byron Center, MI",1,OK,done
1858,FLYING J TRAVEL PLAZA #737,"I-10, EXIT 583",San Antonio,TX,740,3.224,3.224,29.4632,-98.5238,263,29.44608,-98.36128,,"FLYING J TRAVEL PLAZA #737, I-10, EXIT 583, San Antonio, TX",1,OK,done
1859,GO MART FOOD STORE #44,"I-79, EXIT 67 & US-19/SR-4",Sutton,WV,44,3.559,3.559,38.6663,-80.7116,264,38.66766,-80.7179,,"GO MART FOOD STORE #44, I-79, EXIT 67 & US-19/SR-4, Sutton, WV",1,OK,done
1860,MR FUEL #278,"I-75/71, EXIT 175 & SR-338",Walton,KY,300,3.019,3.019,38.8645,-84.6122,265,38.91767,-84.62731,,"MR FUEL #278, I-75/71, EXIT 175 & SR-338, Walton, KY",1,OK,done
1861,PETRO STOPPING CENTER #315,"I-40, EXIT 66",Kingman,AZ,910,3.899,3.899,35.217,-114.0105,266,35.17876,-113.78968,,"PETRO STOPPING CENTER #315, I-40, EXIT 66, Kingman, AZ",1,OK,done
1866,PRI MART FUEL CENTER,"I-94, EXIT 29",Benton Harbor,MI,465,3.649,3.799,42.1159,-86.4488,267,42.07749,-86.41615,,"PRI MART FUEL CENTER, I-94, EXIT 29, Benton Harbor, MI",1,OK,done
1873,JDS TRUCKSTOP,"US-12 & US-31, EXIT 3",Niles,MI,465,3.799,3.849,41.8346,-86.2473,268,41.80668,-86.32066,,"JDS TRUCKSTOP, US-12 & US-31, EXIT 3, Niles, MI",1,OK,done
1874,CIRCLE K #2744529,US-175,Seagoville,TX,630,2.95066666,2.95066666,32.653,-96.5456,269,32.59501,-96.51625,,"CIRCLE K #2744529, US-175, Seagoville, TX",1,OK,done
1879,HOLIDAY STATIONSTORE #3552,"I-35, EXIT 81 & SR-70",Lakeville,MN,448,3.549,3.549,44.6774,-93.252,270,44.64345,-93.29312,,"HOLIDAY STATIONSTORE #3552, I-35, EXIT 81 & SR-70, Lakeville, MN",1,OK,done
1888,STRIPES 7FLEET #42449,US-87,Sterling City,TX,710,3.28066666,3.28066666,31.8392,-100.986,271,31.836,-100.97636,,"STRIPES 7FLEET #42449, US-87, Sterling City, TX",1,OK,done
1889,TOOT N TOTUM #105,US-54 & US-287,Stratford,TX,585,2.96566666,2.96566666,36.3376,-102.076,272,36.33254,-102.07364,,"TOOT N TOTUM #105, US-54 & US-287, Stratford, TX",1,OK,done
1893,MIKE MCDONALD TRUCK STOP,"I-20, EXIT 509",Terrell,TX,637,2.87066666,2.87066666,32.734,-96.2931,273,32.71625,-96.32137,,"MIKE MCDONALD TRUCK STOP, I-20, EXIT 509, Terrell, TX",1,OK,done
1894,CIRCLE K #2741544,"I-37 & SR-72, EXIT 69",Three Rivers,TX,747,3.06566666,3.06566666,28.4668,-98.1784,274,28.487,-98.1438,,"CIRCLE K #2741544, I-37 & SR-72, EXIT 69, Three Rivers, TX",1,OK,done
1897,YESWAY #1077,"I-20/US-84, EXIT 278",Tye,TX,575,2.87566666,2.87566666,32.4522,-99.8665,275,32.45955,-99.8684,,"YESWAY #1077, I-20/US-84, EXIT 278, Tye, TX",1,OK,done
1905,LUCKY TRUCK STOP,US-82,Whitesboro,TX,630,2.88566666,2.88566666,33.6612,-96.9022,276,33.67359,-96.88496,,"LUCKY TRUCK STOP, US-82, Whitesboro, TX",1,OK,done
1909,RALLYSTOP #1,"I-15, EXIT 62",Cedar City,UT,791,3.459,3.459,37.6834,-113.0956,277,37.68728,-113.07723,,"RALLYSTOP #1, I-15, EXIT 62, Cedar City, UT",1,OK,done
1914,LOVES TRAVEL STOP #792,"I-70, EXIT 160",Green River,UT,835,3.709,3.709,38.9935,-110.1723,278,38.99482,-110.18497,,"LOVES TRAVEL STOP #792, I-70, EXIT 160, Green River, UT",1,OK,done
1921,BELL TRUCK STOP,"I-80, EXIT 146",Park City,UT,835,3.45233333,3.45233333,40.6502,-111.5013,279,40.75026,-111.71417,,"BELL TRUCK STOP, I-80, EXIT 146, Park City, UT",1,OK,done
1923,SCENIC QUIK STOP,"I-70, EXIT 54 & US-89",Salina,UT,835,3.459,3.459,38.9387,-111.8652,280,38.93528,-111.8541,,"SCENIC QUIK STOP, I-70, EXIT 54 & US-89, Salina, UT",1,OK,done
1930,CASEYS #3058,"I-35, EXIT 19 & US-160 E",Wellington,KS,570,3.299,3.299,37.2625,-97.426,281,37.27659,-97.34012,,"CASEYS #3058, I-35 EXIT 19, Wellington, KS",2,OK,done
1931,RBS ONE STOP,"I-15, EXIT 320",Woods Cross,UT,835,3.459,3.459,40.8731,-111.917,282,40.87286,-111.89676,,"RBS ONE STOP, I-15, EXIT 320, Woods Cross, UT",1,OK,done
1934,CIRCLE K #2723710,"I-77, EXIT 24",Austinville,VA,185,3.24066666,3.24066666,36.851,-80.9142,283,36.81942,-80.8516,,"CIRCLE K #2723710, I-77, EXIT 24, Austinville, VA",1,OK,done
1936,QUICK STOP MARKET #36,"I-81, EXIT 10 & US-11",Bristol,VA,185,3.399,3.399,36.6181,-82.1604,284,36.60864,-82.17588,,"QUICK STOP MARKET #36, I-81, EXIT 10 & US-11, Bristol, VA",1,OK,done
1940,7-ELEVEN #40063,"I-81, EXIT 98 & SR-100",Dublin,VA,65,3.199,3.199,37.0987,-80.6831,285,,,"ERROR: 403 Denied: {""message"":""Missing Authentication Token""}",,99,ERROR,not done
1944,LOVES TRAVEL STOPS #399,"I-77, EXIT 1 & SR-620",Lambsburg,VA,65,3.589,3.589,nan,nan,286,36.57856,-80.74052,,"LOVES TRAVEL STOPS #399, I-77, EXIT 1 & SR-620, Lambsburg, VA",1,OK,done
1950,7-ELEVEN #34515,"I-81, EXIT 205",King George,VA,180,3.399,3.399,38.2807,-77.1896,287,38.26355,-77.14432,,"7-ELEVEN #34515, I-81, EXIT 205, King George, VA",1,OK,done
1951,CIRCLE K #2723713,"I-81, EXIT 205",Staunton,VA,185,3.38566666,3.38566666,38.1593,-79.0611,288,38.15595,-79.08589,,"CIRCLE K #2723713, I-81, EXIT 205, Staunton, VA",1,OK,done
1953,FAS MART #3555,"I-64, EXIT 136 & US-15",Gordonsville,VA,180,3.699,3.699,38.136,-78.1879,289,38.12974,-78.1871,,"FAS MART #3555, I-64, EXIT 136 & US-15, Gordonsville, VA",1,OK,done
1954,Joe's Kwik Mart #8409,US-58 & CR-645,Suffolk,VA,130,3.03233333,3.03233333,36.6953,-76.6398,290,36.72181,-76.63925,,"Joe's Kwik Mart #8409, US-58 & CR-645, Suffolk, VA",1,OK,done
1956,PILOT TRAVEL CENTER #4642,"I-81, EXIT 291",Toms Brook,VA,60,3.659,3.659,38.9465,-78.44,291,38.96678,-78.43846,,"PILOT TRAVEL CENTER #4642, I-81, EXIT 291, Toms Brook, VA",1,OK,done
1958,SPEEDWAY #4618,"I-81 & I-77, EXIT 77",Wytheville,VA,185,3.41233333,3.41233333,36.953,-81.0881,292,36.93756,-80.99719,,"SPEEDWAY #4618, I-81 & I-77, EXIT 77, Wytheville, VA",1,OK,done
1960,MAPLEWOOD IRVING,"I-89, EXIT 7",Montpelier,VT,170,3.699,3.699,44.2659,-72.5717,293,44.23435,-72.5616,,"MAPLEWOOD IRVING, I-89, EXIT 7, Montpelier, VT",1,OK,done
1962,SUPER QUIK,"I-64, EXIT 172 & SR-1/SR-7",Grayson,KY,255,3.799,3.799,38.3317,-82.9371,294,38.3476,-82.94117,,"SUPER QUIK, I-64, EXIT 172 & SR-1/SR-7, Grayson, KY",1,OK,done
1976,One9 #963,"I-90, EXIT 276",Spokane,WA,970,3.974,3.989,47.6671,-117.433,295,47.64713,-117.40664,,"One9 #963, I-90, EXIT 276, Spokane, WA",1,OK,done
1977,GEE CEES TRUCK STOP,"I-5, EXIT 57",Toledo,WA,977,3.839,3.839,46.4415,-122.8497,296,46.39237,-122.90512,,"GEE CEES TRUCK STOP, I-5, EXIT 57, Toledo, WA",1,OK,done
1983,KWIK TRIP #427,"US-53, EXIT 110 & SR-40",Bloomer,WI,295,3.41566666,3.41566666,45.1033,-91.4915,297,45.12026,-91.46177,,"KWIK TRIP #427, US-53, EXIT 110 & SR-40, Bloomer, WI",1,OK,done
1985,Camp Douglas BP,"I-90 & I-94, EXIT 55",Camp Douglas,WI,420,3.154,3.154,43.9197,-90.2697,298,43.92321,-90.2659,,"Camp Douglas BP, I-90 & I-94, EXIT 55, Camp Douglas, WI",1,OK,done
2000,RIVER CITY TRAVEL PLAZA,US-41,Marinette,WI,360,3.399,3.399,45.0871,-87.6336,299,45.35255,-88.00187,,"RIVER CITY TRAVEL PLAZA, US-41, Marinette, WI",1,OK,done
2002,KWIK TRIP #222,US-53/US-2,Superior,WI,334,3.339,3.339,46.6941,-92.0823,300,46.72127,-92.07397,,"KWIK TRIP #222, US-53/US-2, Superior, WI",1,OK,done
2009,KWIK TRIP #139,"I-43, EXIT 120 & CR-V/CR-OK",Sheboygan,WI,444,3.29066666,3.29066666,43.7403,-87.7316,301,43.67493,-87.94191,,"KWIK TRIP #139, I-43, EXIT 120 & CR-V/CR-OK, Sheboygan, WI",1,OK,done
2020,BFS FOODS #72,"I-68, EXIT 23 & SR-26",Bruceton Mills,WV,165,3.499,3.499,39.6594,-79.6406,302,39.66601,-79.6201,,"BFS FOODS #72, I-68, EXIT 23 & SR-26, Bruceton Mills, WV",1,OK,done
2021,GO MART FOOD STORE #59,"I-64, EXIT 15 & US-60",Huntington,WV,255,3.499,3.499,38.4109,-82.4345,303,38.41282,-82.34971,,"GO MART FOOD STORE #59, I-64, EXIT 15 & US-60, Huntington, WV",1,OK,done
2022,GO MART FOOD STORE #86,"I-79, EXIT 40 & SR-16",Ivydale,WV,44,3.599,3.599,nan,nan,304,38.59277,-81.04312,,"GO MART FOOD STORE #86, I-79, EXIT 40 & SR-16, Ivydale, WV",1,OK,done
2029,HOMAX SERVICE,"I-25, EXIT 188",Mills,WY,790,3.169,3.169,42.8473,-106.383,305,,,"ERROR: 403 Denied: {""message"":""Missing Authentication Token""}",,99,ERROR,not done
2030,GHOST TOWN FUEL STOP,US-26/US-20,Casper,WY,790,3.429,3.429,42.842,-106.3208,306,42.86423,-106.40687,,"GHOST TOWN FUEL STOP, US-26/US-20, Casper, WY",1,OK,done
2034,TA CHEYENNE TRAVEL CENTER,"I-80, EXIT 377 & SR-217/CR-140",Cheyenne,WY,795,3.699,3.699,41.135,-104.7902,307,,,"ERROR: 403 Denied: {""message"":""Missing Authentication Token""}",,99,ERROR,not done
2040,Fast Stop Travel Centers #1133,"I-25, EXIT 126 & US-18/20",Douglas,WY,790,3.499,3.499,42.7542,-105.3969,308,42.65835,-105.17431,,"Fast Stop Travel Centers #1133, I-25, EXIT 126 & US-18/20, Douglas, WY",1,OK,done
2041,PINE BLUFFS SINCLAIR,"I-80, EXIT 401 & US-30",Pine Bluffs,WY,795,3.699,3.699,41.1802,-104.0748,309,41.17427,-104.08087,,"PINE BLUFFS SINCLAIR, I-80, EXIT 401 & US-30, Pine Bluffs, WY",1,OK,done
2044,One9 #1251,"I-80, EXIT 173",Wamsutter,WY,795,3.499,3.499,41.668,-107.9792,310,41.67171,-107.98694,,"One9 #1251, I-80, EXIT 173, Wamsutter, WY",1,OK,done
2074,STRIPES #40522,"I-10, EXIT 550",San Antonio,TX,740,3.059,3.059,29.4632,-98.5238,311,29.66875,-98.6324,,"STRIPES #40522, I-10, EXIT 550, San Antonio, TX",1,OK,done
2076,ALLSUPS CONVENIENCE STORE #2159,US-283 BUS/US-277 BUS & SR-422,Seymour,TX,770,3.299,3.299,33.5958,-99.258,312,33.82633,-99.15966,,"ALLSUPS CONVENIENCE STORE #2159, US-283 BUS/US-277 BUS & SR-422, Seymour, TX",1,OK,done
2078,ALLSUPS CONVENIENCE STORE #2366,US-84 & CR-3300,Slaton,TX,700,2.969,2.969,33.4421,-101.6476,313,32.63463,-100.76365,,"ALLSUPS CONVENIENCE STORE #2366, US-84 & CR-3300, Slaton, TX",1,OK,done
2084,Main Street Market #112,"I-20, EXIT 73",Wickett,TX,710,2.879,2.879,31.5673,-103.006,314,31.56598,-102.99961,,"Main Street Market #112, I-20, EXIT 73, Wickett, TX",1,OK,done
2087,LWS TRUCK STOP,SR-30,Logan,UT,835,3.42566666,3.42566666,41.7399,-111.8422,315,41.7404,-111.90664,,"LWS TRUCK STOP, SR-30, Logan, UT",1,OK,done
2088,FLYING J TRAVEL PLAZA #773,"I-70, EXIT 40",Richfield,UT,835,3.699,3.699,38.7613,-112.0931,316,38.7882,-112.08121,,"FLYING J TRAVEL PLAZA #773, I-70, EXIT 40, Richfield, UT",1,OK,done
2089,FLYING J TRAVEL PLAZA #774,"I-84, EXIT 7",Snowville,UT,835,3.749,3.749,41.9728,-112.7164,317,41.96389,-112.70978,,"FLYING J TRAVEL PLAZA #774, I-84, EXIT 7, Snowville, UT",1,OK,done
2115,KWIK TRIP #838,SR-23/SR-33,Reedsburg,WI,420,3.194,3.194,43.5348,-89.9965,318,43.53218,-89.99868,,"KWIK TRIP #838, SR-23/SR-33, Reedsburg, WI",1,OK,done
2125,BIG D #44,"I-80, EXIT 311 & SR-130",Laramie,WY,795,3.249,3.249,41.3099,-105.6085,319,41.32858,-105.68372,,"BIG D #44, I-80, EXIT 311 & SR-130, Laramie, WY",1,OK,done
2144,Mountain View Truck Stop,US-15,Thurmont,MD,60,4.099,4.099,39.621,-77.4076,320,39.62534,-77.42136,,"Mountain View Truck Stop, US-15, Thurmont, MD",1,OK,done
2152,SPEEDWAY #4709,"I-90, EXIT 102",Fairmont,MN,425,3.299,3.299,43.6441,-94.4621,321,43.67587,-94.44863,,"SPEEDWAY #4709, Fairmont, MN",3,OK,done
2167,PILOT TRAVEL CENTERS #134,"I-94, EXIT 171 (CR 75)",Saint Cloud,MN,451,3.28733333,3.28733333,nan,nan,322,45.48827,-94.14801,,"PILOT TRAVEL CENTERS #134, I-94, EXIT 171 (CR 75), Saint Cloud, MN",1,OK,done
2182,PILOT TRAVEL CENTER #4649,"I-64 & I-81, EXIT 205",Raphine,VA,185,3.659,3.659,nan,nan,323,37.93195,-79.23165,,"PILOT TRAVEL CENTER #4649, I-64 & I-81, EXIT 205, Raphine, VA",1,OK,done
2192,GO MART FOOD STORE #51,US-19/SR-129,Mount Nebo,WV,44,3.599,3.599,nan,nan,324,38.21193,-80.8506,,"GO MART FOOD STORE #51, US-19/SR-129, Mount Nebo, WV",1,OK,done
2194,A AND A TRUCKSTOP,US-35 & CR-41,Jackson,OH,315,3.799,3.799,39.0448,-82.6458,325,38.99881,-82.55335,,"A AND A TRUCKSTOP, US-35 & CR-41, Jackson, OH",1,OK,done
2196,Certified Oil #400410,I-76 EXIT 43,Ravenna,OH,249,3.31566666,3.31566666,41.1612,-81.2422,326,41.32761,-81.46162,,"Certified Oil #400410, I-76 EXIT 43, Ravenna, OH",1,OK,done
2204,NATURAL BRIDGE SHELL,US-278 & SR-5,Lynn,AL,615,3.68233333,3.68233333,34.0548,-87.5555,327,34.08706,-87.59658,,"NATURAL BRIDGE SHELL, US-278 & SR-5, Lynn, AL",1,OK,done
2209,Roadrunner #471,"I-40/US-65, EXIT 142 & SR-365",North Little Rock,AR,695,3.03233333,3.03233333,34.7807,-92.2371,328,34.72434,-92.27317,,"Roadrunner #471, I-40/US-65, EXIT 142 & SR-365, North Little Rock, AR",1,OK,done
2219,PILOT TRAVEL CENTER #66,"I-85, EXIT 129",Braselton,GA,16,3.27233333,3.27233333,34.1087,-83.8127,329,34.11981,-83.76161,,"PILOT TRAVEL CENTER #66, I-85, EXIT 129, Braselton, GA",1,OK,done
2223,PO JOS GAS N GO,"I-16 SR-404, EXIT 116 & US-301/SR-73",Register,GA,195,3.23233333,3.23233333,32.3658,-81.8845,330,32.26538,-81.87322,,"PO JOS GAS N GO, I-16 SR-404, EXIT 116 & US-301/SR-73, Register, GA",1,OK,done
2227,SPEEDWAY #7448,SR-59,Naperville,IL,293,3.329,3.359,41.748,-88.1659,331,41.81989,-88.20347,,"SPEEDWAY #7448, SR-59, Naperville, IL",1,OK,done
2231,QUIKTRIP #605,"I-270, EXIT 33",Saint Louis,MO,540,2.899,2.899,nan,nan,332,38.69399,-90.45034,,"QUIKTRIP #605, I-270, EXIT 33, Saint Louis, MO",1,OK,done
2255,S&G #36,"I-280, EXIT 2 & SR-795",Millbury,OH,550,3.49233333,3.49233333,41.5648,-83.4255,333,41.55877,-83.46023,,"S&G #36, I-280, EXIT 2 & SR-795, Millbury, OH",1,OK,done
2267,Circle K #4703917,"I-65, EXIT 112 & SR-25",Cross Plains,TN,460,2.949,2.949,36.5412,-86.6765,334,36.52975,-86.648,,"Circle K #4703917, I-65, EXIT 112 & SR-25, Cross Plains, TN",1,OK,done
2283,CIRCLE K #2707321,SR-60,Bartow,FL,225,3.52233333,3.52233333,27.8868,-81.8214,335,27.89667,-81.84518,,"CIRCLE K #2707321, SR-60, Bartow, FL",1,OK,done
2287,SAC SHOP #511,"I-76/I-70, EXIT 146 & I-99/US-220 EXIT 1",Bedford,PA,14,4.099,4.099,nan,nan,336,40.04007,-78.50382,,"SAC SHOP #511, I-76/I-70, EXIT 146 & I-99/US-220 EXIT 1, Bedford, PA",1,OK,done
2306,SCOTCHMAN #3894,"I-77, EXIT 73 & SR-901",Rock Hill,SC,210,3.079,3.079,34.9415,-81.0241,337,34.86156,-81.00561,,"SCOTCHMAN #3894, I-77, EXIT 73 & SR-901, Rock Hill, SC",1,OK,done
